,State,District,Latitude,Longitude,District code,Population,Male,Female,Literate,Male_Literate,Female_Literate,Agricultural_Workers,Workers,Housholds_with_Electric_Lighting,Households_with_Internet,Hindus,Muslims,Christians,Sikhs,Jains,Buddhists,Male_Workers,Female_Workers,Literate_rate,sex_rate
0,Andhra Pradesh,Adilabad,19.284513950073435,78.81321233480176,532,2741239,1369597,1371642,1483347,856350,626997,484912,1323667,566108,5512,2399901,275970,15422,1377,617,25510,748939,574728,54.112282803506005,99.85090861901284
1,Andhra Pradesh,Anantapur,14.312065561843148,77.4601584478577,553,4081148,2064495,2016653,2310960,1338474,972486,879537,2036166,897970,8606,3599372,443456,20463,932,1417,341,1208544,827622,56.62524368143473,102.37234665557237
2,Andhra Pradesh,Chittoor,13.33109263067696,78.92763898886037,554,4174064,2090204,2083860,2667878,1484794,1183084,748093,1933357,944555,13763,3737588,397870,24129,867,1322,253,1202223,731134,63.915598802509976,100.30443503882218
3,Andhra Pradesh,East Godavari,16.782718320784902,82.2432074720511,545,5154296,2569688,2584608,3288577,1716933,1571644,1122046,2093681,1297273,22411,4983330,77777,77825,738,4149,413,1545831,547850,63.80264152466215,99.42273644591366
4,Andhra Pradesh,Guntur,15.884925767634847,80.58657614107885,548,4887813,2440521,2447292,2960441,1634726,1325715,1227956,2381624,1186028,19383,4217597,559770,89763,764,3282,323,1442370,939254,60.56780404651324,99.72332684452856
5,Andhra Pradesh,Hyderabad,17.38971555555556,78.46668888888888,536,3943323,2018575,1924748,2892155,1542688,1349467,23029,1413297,869721,149034,2046051,1713405,87522,11446,19560,1268,1045585,367712,73.34309160066269,104.87476802157998
6,Andhra Pradesh,Karimnagar,18.515483193277312,79.43765428571413,534,3776269,1880800,1895469,2206829,1257238,949591,756859,1876768,926768,8831,3491139,244723,24979,2086,312,332,1049463,827305,58.43940143035361,99.22610182493092
7,Andhra Pradesh,Khammam,17.683921325051784,80.67008643892335,541,2797370,1390988,1406382,1630234,901640,728594,804537,1410062,668519,8628,2595321,158887,33463,655,459,217,802906,607156,58.27738196949277,98.9054183002911
8,Andhra Pradesh,Krishna,16.143872753151673,81.14805061000413,547,4517398,2267375,2250023,3009718,1598959,1410759,1006976,2048880,1163932,30438,4023678,307043,145598,1393,6320,863,1327299,721581,66.62503503122815,100.7711921167028
9,Andhra Pradesh,Kurnool,15.43759715142429,77.90086836581717,552,4053463,2039227,2014236,2127161,1246369,880792,1037302,2029425,816721,10081,3328380,670737,33165,737,2235,255,1164122,865303,52.47762222080231,101.24071856525254
10,Andhra Pradesh,Mahbubnagar,16.639546224256293,77.98933089244859,538,4053028,2050386,2002642,1940646,1158386,782260,931084,2082501,757821,6153,3673456,334172,21345,658,388,290,1140067,942434,47.881386459703705,102.38405066906617
11,Andhra Pradesh,Medak,17.889304978038055,78.13778901903379,535,3033288,1523030,1510258,1637137,953406,683731,571129,1442203,604719,8635,2637313,342449,34301,1309,457,554,837874,604329,53.972356070376435,100.84568332033335
12,Andhra Pradesh,Nalgonda,17.113250515463907,79.16984453608244,539,3488809,1759772,1729037,2001019,1160757,840262,863131,1741693,789225,7715,3249231,188646,35025,937,250,241,976428,765265,57.35536109887357,101.77757908014694
13,Andhra Pradesh,Nizamabad,18.429485849056604,78.07523490566035,533,2551335,1250641,1300694,1389810,790214,599596,448281,1261076,545913,5261,2123426,391596,19653,2357,542,1847,684320,576756,54.47383428675576,96.15182356495839
14,Andhra Pradesh,Prakasam,15.489039001601704,80.11665790176184,549,3397448,1714764,1682684,1904435,1107686,796749,889218,1700567,763746,6151,3150195,220654,18775,266,204,97,991842,708725,56.054868242280676,101.90647798398274
15,Andhra Pradesh,Srikakulam,18.570900998697432,84.25874814010675,542,2703114,1341738,1361376,1495381,857824,637557,700833,1290288,615432,3988,2666950,9025,18879,193,160,77,766483,523805,55.32067829917643,98.55748889359002
16,Andhra Pradesh,Vizianagaram,18.28329696032972,83.45982854198873,543,2344474,1161477,1182997,1238388,707503,530885,557254,1157962,527736,4453,2299129,16423,17853,380,815,114,679289,478673,52.82157106455435,98.18089141392582
17,Andhra Pradesh,Warangal,18.01752608695651,79.87422028985509,540,3512576,1759281,1753295,2065023,1179790,885233,758092,1705655,828077,12952,3273755,197333,31377,1453,569,253,960926,744729,58.78941836418628,100.34141430848773
18,Andhra Pradesh,West Godavari,16.63297943925236,81.45912990654196,546,3936966,1964918,1972048,2652389,1379223,1273166,1061787,1773112,1017568,12050,3733191,86142,109120,288,1578,209,1199338,573774,67.37139716218022,99.63844693435455
19,Arunachal Pradesh,Changlang,27.36048479338845,96.37552644628106,253,148226,76948,71278,73174,44027,29147,4208,62966,14593,170,47683,2134,35969,94,95,50381,39329,23637,49.3665079000985,107.9547686523191
20,Arunachal Pradesh,East Kameng,27.371194055944056,93.04741486013997,247,78690,38775,39915,38449,21599,16850,1063,31710,5318,57,12333,652,37136,36,23,452,16424,15286,48.861354682933026,97.14393085306276
21,Arunachal Pradesh,East Siang,28.15382352941176,95.06499226006191,251,99214,50116,49098,62576,34210,28366,3565,40222,14231,450,27854,2289,18254,69,30,776,23591,16631,63.07174390710988,102.07340421198418
22,Arunachal Pradesh,Kurung Kumey,28.04853351800553,93.24531994459834,256,92076,45318,46758,36606,20258,16348,2947,38044,3911,95,4859,471,51189,43,81,121,18429,19615,39.756288283591815,96.92031310150135
23,Arunachal Pradesh,Lohit,27.946785273972623,96.59670770547945,259,145726,76221,69505,83062,48380,34682,7789,60945,17157,312,99020,3846,10684,210,104,24452,38910,22035,56.998751080795465,109.66261420041722
24,Arunachal Pradesh,Lower Dibang Valley,28.32651730103806,95.76567335640142,258,54080,28053,26027,31849,18087,13762,3354,22326,5932,207,28915,2247,9213,33,19,2932,14102,8224,58.89238165680474,107.78422407499903
25,Arunachal Pradesh,Lower Subansiri,27.70849297297297,93.96226108108112,255,83030,41843,41187,54057,29470,24587,1968,30202,12493,381,9551,1482,34402,27,13,193,17339,12863,65.1053835962905,101.59273557190376
26,Arunachal Pradesh,Papum Pare,27.273529716981127,93.54468183962264,248,176573,89182,87391,121048,65794,55254,1859,65772,30539,2477,57027,6148,84397,310,139,4768,41263,24509,68.55408244748631,102.0494101223238
27,Arunachal Pradesh,Tawang,27.680683962264148,91.82504245283016,245,49977,29151,20826,26073,17720,8353,1581,28561,8635,96,11842,787,776,1164,72,34920,19554,9007,52.169998199171616,139.9740708729473
28,Arunachal Pradesh,Tirap,26.94406229508198,95.41470327868862,254,111975,57604,54371,47974,29313,18661,1811,50169,16026,98,20682,1103,83361,61,43,778,27545,22624,42.843491850859564,105.94618454690921
29,Arunachal Pradesh,Upper Siang,28.8309244897959,95.00155765306124,252,35320,18699,16621,18195,10723,7472,804,17644,6198,97,5261,411,5643,27,7,2577,9968,7676,51.514722536806346,112.50225618193852
30,Arunachal Pradesh,Upper Subansiri,28.277196566523585,93.8991435622318,249,83448,41758,41690,45278,24807,20471,1846,33370,5373,139,13474,521,8779,28,11,297,17898,15472,54.25893969897421,100.16310865915088
31,Arunachal Pradesh,West Kameng,27.46486582278483,92.65015750452083,246,83947,46155,37792,48492,29566,18926,1705,42493,14188,202,31265,1970,8466,328,71,36087,28313,14180,57.76501840446948,122.12902201524132
32,Arunachal Pradesh,West Siang,28.106296920289843,94.53510344202908,250,112274,58168,54106,64746,36777,27969,1384,49177,14204,303,15881,2218,29969,577,49,3311,29156,20021,57.66784829969539,107.50748530662034
33,Assam,Barpeta,26.427872264631056,90.97912010178116,303,1693622,867004,826618,897058,499038,398020,98946,561824,84804,2078,492966,1198036,1020,112,399,49,445297,116527,52.9668367557814,104.88569085115496
34,Assam,Bongaigaon,26.45012521994133,90.6734296187684,319,738804,375818,362986,434078,237114,196964,47406,255806,49866,2523,359145,371033,5924,384,871,236,197542,58264,58.75414859692151,103.53512256671056
35,Assam,Cachar,24.815570668693017,92.86849650455927,316,1736617,886284,850333,1174128,639946,534182,68664,608062,140205,5316,1038985,654816,37635,280,1673,341,469752,138310,67.61007176596797,104.2278730803109
36,Assam,Darrang,26.58463215962442,92.04141338028155,325,928500,475273,453227,487039,268666,218373,81617,324843,45444,1166,327322,597392,1688,431,724,57,246864,77979,52.4543887991384,104.86422918316869
37,Assam,Dhemaji,27.586533438485816,94.71336908517353,308,686133,351249,334884,423028,237761,185267,19181,316800,28195,1192,655052,13475,8711,297,167,911,186577,130223,61.65393589872517,104.8867667610277
38,Assam,Dibrugarh,27.30612284482757,95.0998282327587,310,1326335,676434,649901,884531,491361,393170,61209,560557,136685,8817,1198401,64526,52968,2261,1055,4673,368013,192544,66.68986342062902,104.08262181470715
39,Assam,Goalpara,26.017277777777807,90.59869891598912,302,1008183,513292,494891,563577,304302,259275,75828,362573,78641,1364,347878,579929,77862,771,477,194,267118,95455,55.90026810608788,103.71819249087173
40,Assam,Golaghat,26.377219709794485,93.82583397823468,313,1066888,543161,523727,721764,396475,325289,66616,479928,82345,3073,917426,90312,50582,1131,530,3863,309104,170824,67.6513373475004,103.71071187851686
41,Assam,Hailakandi,24.457496089385486,92.59154664804475,318,659296,337890,321406,407366,226836,180530,31248,214240,44143,1211,251194,397653,8480,84,247,490,170792,43448,61.78802844245984,105.12871570536953
42,Assam,Jorhat,26.76244824016563,94.30197722567289,312,1092256,556805,535451,794929,432335,362594,53153,498618,122063,5651,1008219,54684,21051,1540,719,2378,320746,177872,72.7786343128351,103.98803998871979
43,Assam,Kamrup,26.170939452054807,91.58863273972592,321,1517542,778461,739081,995319,550219,445100,99522,628954,122191,3109,877495,601784,33297,319,1330,185,428492,200462,65.58757517090137,105.32823871808368
44,Assam,Karbi Anglong,26.08966454598031,93.11536570271832,314,956313,490167,466146,557214,314253,242961,60952,383441,53918,1923,766000,20290,157789,370,397,6260,246193,137248,58.26690633715113,105.15310653743677
45,Assam,Karimganj,24.69660712250711,92.3679498575498,317,1228686,625864,602822,795297,435942,359355,67033,399171,70951,1933,521962,692489,11990,114,524,446,319798,79373,64.72744053403392,103.82235552119863
46,Assam,Kokrajhar,26.497246635730868,90.13997470997688,300,887142,452905,434237,489305,275220,214085,56330,341131,41373,1218,529068,252271,101091,93,396,1718,236322,104809,55.15520626912039,104.29903485884435
47,Assam,Lakhimpur,27.14128805970149,94.0775949253732,307,1042137,529674,512463,683486,375552,307934,43922,429995,60296,1948,797130,193476,46217,412,250,1074,282250,147745,65.58504304136596,103.35848636877199
48,Assam,Nagaon,26.26462170626351,92.9306191144708,305,2823768,1439112,1384656,1710716,921850,788866,196174,979998,195631,5121,1225246,1563203,26844,3036,1162,1073,766728,213270,60.582739091880065,103.93281797067286
49,Assam,Nalbari,26.46323767605632,91.40598521126763,323,771639,396006,375633,531771,293184,238587,34984,267623,68313,1631,491582,277488,429,62,1004,27,210202,57421,68.91447943921963,105.42364488743002
50,Assam,Sonitpur,26.73514926829268,92.85197804878044,306,1924110,983904,940206,1108572,620525,488047,114865,770606,133368,4358,1422824,350536,138166,1363,1003,5088,537195,233411,57.614793333021495,104.64770486467859
51,Assam,Tinsukia,27.53549291139241,95.69055949367085,309,1327929,680231,647698,798322,453449,344873,47756,557196,161718,5135,1181347,48373,76877,1999,837,16228,366623,190573,60.11782256430879,105.02286559476792
52,Bihar,Araria,26.211528119180603,87.30766554934816,209,2811569,1463333,1348236,1195768,727643,468125,691947,1069893,43290,2561,1593525,1207442,4116,371,1910,187,708391,361502,42.530274021373835,108.53685853218576
53,Bihar,Aurangabad,24.774291867469877,84.45986024096379,235,2540073,1318684,1221389,1466002,868733,597269,426096,837770,44456,2362,2291133,237353,2218,295,775,334,599157,238613,57.71495543632014,107.96593059213731
54,Bihar,Aurangabad,24.774291867469877,84.45986024096379,515,3701282,1924469,1776813,2503837,1430936,1072901,396630,1575079,589477,23258,2545438,786677,15991,5142,30981,309093,1015864,559215,67.64783121091557,108.31015981985723
55,Bihar,Banka,24.832355642023337,86.8664916342413,225,2034763,1067140,967623,965321,590961,374360,462614,771080,62359,1704,1772655,250925,6138,139,94,113,517817,253263,47.44144649770023,110.28468732140513
56,Bihar,Begusarai,25.54302613168723,86.12560144032932,222,2970541,1567660,1402881,1548673,918507,630166,430870,938182,120373,4644,2554330,407348,2209,402,276,229,715345,222837,52.13437552284247,111.74575748049907
57,Bihar,Bhagalpur,25.277192885375477,87.04213814229242,224,3037766,1615663,1422103,1573066,937669,635397,475228,983528,174534,6764,2487866,537098,3556,415,1050,180,740056,243472,51.78364627163514,113.61082847023036
58,Bihar,Bhojpur,25.50666439393939,84.49407803030304,231,2728407,1430380,1298027,1599151,973486,625665,364875,822493,62153,3661,2518216,197819,2165,544,1472,647,640283,182210,58.61116028510409,110.19647511184283
59,Bihar,Buxar,25.48593018867924,84.08808081760995,232,1706352,887977,818375,989807,593544,396263,251790,538322,46760,1784,1591454,105423,2125,248,97,5090,402180,136142,58.00719898356259,108.50490300901177
60,Bihar,Darbhanga,26.146187719298258,85.97387352472099,215,3937385,2059949,1877436,1816634,1125566,691068,642115,1223640,127442,6280,3042729,881476,3534,832,236,245,947927,275713,46.138084032930486,109.72139662816735
61,Bihar,Gaya,24.7266541547278,84.94291217765044,236,4391418,2266566,2124852,2297613,1368803,928810,783505,1664062,112617,6856,3876395,488121,3943,913,1723,870,1076170,587892,52.32052608064184,106.6693586188591
62,Bihar,Gopalganj,26.44874364161851,84.34636127167629,217,2562012,1267666,1294346,1382998,793905,589093,338666,728201,69375,3707,2119262,436057,2463,271,133,167,539586,188615,53.98093373489273,97.93872735729087
63,Bihar,Jamui,24.78418380462726,86.26316298200514,238,1760405,916064,844341,858588,534385,324203,331466,727571,32633,1839,1525746,217621,8443,162,87,159,452288,275283,48.77218594584769,108.49455374072798
64,Bihar,Jehanabad,25.155679045643165,84.9208124481328,239,1125313,585582,539731,618881,374412,244469,179519,365378,27641,1106,1045117,75742,691,148,60,248,266423,98955,54.99634323961422,108.4951577730388
65,Bihar,Katihar,25.56565356037151,87.70466083591326,212,3071029,1600430,1470599,1280190,762256,517934,672291,1013566,60900,2941,1684589,1365645,8659,2754,507,212,760522,253044,41.68602771253544,108.82844337579449
66,Bihar,Khagaria,25.53558891454964,86.56593256351037,223,1666886,883786,783100,768028,461153,306875,325731,560805,40641,1580,1486989,175588,1253,143,86,79,398216,162589,46.07561644887533,112.85736176733494
67,Bihar,Kishanganj,26.324336758321294,87.95045007235886,210,1690400,866970,823430,745056,439921,305135,321867,529064,58718,1093,531236,1149095,5783,398,1476,183,421192,107872,44.07572172266919,105.28763829347972
68,Bihar,Lakhisarai,25.183449321266963,86.12825701357468,227,1000912,526345,474567,507270,305182,202088,159970,326576,44491,1186,956396,40886,487,140,78,52,240494,86082,50.68077912943396,110.91057743163768
69,Bihar,Madhepura,25.77341929460581,86.8978443983403,213,2001762,1047559,954203,834577,517666,316911,484062,777546,23236,1397,1753829,241760,1342,170,133,60,496046,281500,41.692119242946966,109.78366238630564
70,Bihar,Madhubani,26.41380538172716,86.16328360450552,207,4487379,2329313,2158066,2155338,1340085,815253,940642,1636938,113281,5319,3652168,818912,3262,564,442,328,1105947,530991,48.03111125670464,107.93520680090414
71,Bihar,Munger,25.198537962962963,86.54173672839504,226,1367765,729041,638724,801817,473741,328076,196449,426658,90461,2653,1252319,110416,1815,338,145,95,327453,99205,58.62242417374329,114.14022332024474
72,Bihar,Muzaffarpur,26.18664417177915,85.32745092024543,216,4801062,2527497,2273565,2509232,1487117,1022115,769001,1547586,180651,10290,4032773,745546,5149,933,382,288,1195308,352278,52.264103233826184,111.16889114672333
73,Bihar,Nalanda,25.229345508982053,85.48053113772461,229,2877653,1497060,1380593,1519933,919558,600375,534021,1045420,101378,4156,2669775,198033,1978,393,561,414,703405,342015,52.818494794195125,108.43601264094487
74,Bihar,Nawada,24.825708836206903,85.61594568965519,237,2219146,1144668,1074478,1091012,659474,431538,397505,817041,31162,1841,1964620,244394,1299,250,279,176,539439,277602,49.163597167559054,106.53247437360281
75,Bihar,Pashchim Champaran,27.16064352201258,84.30265911949685,203,3935042,2061110,1873932,1759481,1091226,668255,998833,1478947,57546,3495,3047427,865090,8469,926,296,1337,999282,479665,44.713144103671574,109.98851612545172
76,Bihar,Patna,25.40297114503818,85.3198433587787,230,5838465,3078512,2759953,3459679,2028047,1431632,658203,1881886,546859,40692,5356075,439952,12551,4803,2151,1062,1436411,445475,59.25665393215511,111.54218930539759
77,Bihar,Purba Champaran,26.68129336734693,85.00382155612242,204,5099371,2681209,2418162,2276957,1407603,869354,1057417,1737539,74979,7719,4086453,990349,4865,668,464,878,1260774,476765,44.65172273207813,110.87797260894845
78,Bihar,Purnia,25.81714801901739,87.40447606973065,211,3264619,1699370,1565249,1332326,805261,527065,745015,1143318,86058,4170,1989420,1255641,7989,614,1450,353,803275,340043,40.81107167482637,108.56866862716413
79,Bihar,Rohtas,24.99170460829495,83.9350762672811,234,2959918,1543546,1416372,1799832,1061783,738049,405544,924879,114893,4594,2645415,300487,2889,2569,252,1584,707939,216940,60.806819648382145,108.97885583730829
80,Bihar,Saharsa,25.821270696721303,86.54670819672135,214,1900661,997174,903487,804996,506374,298622,356833,649898,41342,1668,1629254,266620,1292,197,109,60,456724,193174,42.35347597493714,110.36949065122133
81,Bihar,Samastipur,25.793205563909765,85.94833323308269,221,4261566,2230003,2031563,2142880,1293575,849305,721629,1343400,88021,5379,3800598,452370,2126,554,231,292,1037576,305824,50.28386278659066,109.76784869580712
82,Bihar,Saran,25.89656077844312,84.82266287425155,219,3951862,2022821,1929041,2157454,1285767,871687,493461,1040231,94787,4509,3534772,406449,2330,371,322,229,857660,182571,54.59335371528662,104.86148298558713
83,Bihar,Sheikhpura,25.12472436548223,85.77839390862943,228,636342,329743,306599,328676,196431,132245,109696,224655,20065,631,596102,37653,313,75,43,41,151569,73086,51.65084184290837,107.54862214162473
84,Bihar,Sheohar,26.458380748663107,85.29539411764709,205,656246,346673,309573,283698,171645,112053,136334,216372,10004,478,552492,99342,522,216,52,73,166693,49679,43.23043492836528,111.98424927238486
85,Bihar,Sitamarhi,26.56570069686413,85.61172491289203,206,3423574,1803252,1620322,1436794,885188,551606,635907,1114583,66263,3460,2672311,740101,2897,261,188,253,865929,248654,41.96766303284229,111.28973130032178
86,Bihar,Siwan,26.1736372013652,84.33766552901022,218,3330464,1675090,1655374,1930175,1115906,814269,376344,932416,52935,3834,2712635,608282,2618,369,359,407,730396,202020,57.95513778260326,101.19102994247827
87,Bihar,Supaul,26.28157893772896,86.78496465201461,208,2229076,1155283,1073793,1033283,647672,385611,554271,877682,51028,1845,1809936,409251,3758,271,546,136,551718,325964,46.35476762568885,107.58898595911874
88,Bihar,Vaishali,25.8134703180212,85.39247597173153,220,3495021,1844535,1650486,1926740,1152576,774164,502637,1060344,70001,4810,3152346,333980,2203,707,246,362,858648,201696,55.12813799974307,111.75708245934834
89,Chandigarh,Chandigarh,30.7426,76.75872465753424,55,1055450,580663,474787,805438,465346,340092,1687,404136,231204,44283,852574,51447,8720,138329,1960,1160,328159,75977,76.31228385996495,122.29968385823537
90,Chhattisgarh,Bastar,19.393866751269048,81.52895126903546,414,1413199,698487,714712,650863,382335,268528,287828,726531,157646,1782,1277975,12413,27951,2099,3466,985,404364,322167,46.05600485140451,97.72985482264185
91,Chhattisgarh,Bilaspur,22.356942982456143,81.99770350877188,30,381956,192764,189192,287620,155599,132021,4138,205871,79146,1574,371973,6984,236,2387,10,113,111543,94328,75.3018672307805,101.8880290921392
92,Chhattisgarh,Bilaspur,22.356942982456143,81.99770350877188,406,2663629,1351574,1312055,1596560,932474,664086,572292,1203197,519704,8566,2540763,57973,20745,6373,2357,2979,715467,487730,59.939278330428145,103.01199263750375
93,Chhattisgarh,Dhamtari,20.554912627291245,81.7569195519348,412,799781,397897,401884,546833,303924,242909,182602,402895,148926,1016,777188,10425,2644,1196,3612,667,226382,176513,68.37284206551544,99.0079226841576
94,Chhattisgarh,Durg,21.194463849287164,81.33181639511197,409,3343872,1682101,1661771,2303378,1284612,1018766,560415,1496805,614109,16141,3129745,83499,24304,24276,17209,19587,921729,575076,68.88355774383709,101.22339359634991
95,Chhattisgarh,Jashpur,22.77286167664669,83.8703962075848,402,851669,424747,426922,495415,280656,214759,197558,487360,76783,567,629509,15336,189588,474,694,467,263645,223715,58.16989933882765,99.49053925541433
96,Chhattisgarh,Korba,22.491712499999995,82.57604326923074,404,1206640,612915,593725,748759,433391,315368,221806,521186,202380,4544,1133176,30195,21059,3666,753,897,333329,187857,62.05322217065571,103.23213608994062
97,Chhattisgarh,Koriya,23.50412776859501,82.12515636363635,400,658917,334737,324180,397823,229923,167900,94648,307071,80023,1667,604259,25878,9398,1391,1155,84,185483,121588,60.375282471085136,103.2565241532482
98,Chhattisgarh,Mahasamund,21.223727037773354,82.65925427435384,411,1032754,511967,520787,637963,364089,273874,278073,499260,212487,961,1008061,12570,5284,2941,1495,521,291858,207402,61.772987565286606,98.30640933817473
99,Chhattisgarh,Raigarh,22.008265068493166,83.27797698630134,403,1493984,750278,743706,951639,542756,408883,323788,690167,297308,3342,1422986,17332,47653,2117,409,781,429211,260956,63.6980717330306,100.88368253046231
100,Chhattisgarh,Raigarh,22.008265068493166,83.27797698630134,520,2634200,1344345,1289855,1939994,1059692,880302,191182,1072969,547206,38570,2239370,227465,17452,7477,12260,121791,753843,319126,73.64642016551515,104.22450585530932
101,Chhattisgarh,Raipur,20.88603153846152,82.20032759615388,410,4063872,2048186,2015686,2629749,1493158,1136591,708993,1757664,728556,20261,3881485,103038,23181,16707,17137,8397,1099964,657700,64.71042887177549,101.61235430518445
102,Chhattisgarh,Surguja,23.32719278728607,83.23582493887531,401,2359886,1193129,1166757,1187941,694686,493255,523356,1155807,253131,2737,2126195,81442,97432,2303,623,1287,649888,505919,50.33891467638691,102.26028213244061
103,Daman and Diu,Daman,20.431616666666677,72.8392366071429,495,191173,124659,66514,150348,104316,46032,481,105521,49249,1316,171537,16087,2618,169,244,216,94502,11019,78.64499693994445,187.4176865020898
104,Daman and Diu,Junagadh,20.72568199498111,70.83985639899612,479,2743082,1404356,1338726,1842818,1046981,795837,333996,1123709,498326,6628,2397056,334858,2586,1110,3841,1291,801859,321850,67.18056550988997,104.90242215359977
105,Goa,North Goa,15.548723418714054,73.80667997909038,585,818008,416677,401331,663060,351738,311322,14120,327658,173951,23440,622213,57941,134169,618,546,553,239125,88533,81.05788696443066,103.82377638408198
106,Goa,South Goa,15.195278658183785,73.941792596877,586,640537,322463,318074,502427,264085,238342,12640,249590,138810,17624,341664,63623,231961,855,563,542,180411,69179,78.43840402662141,101.37986757798501
107,Gujarat,Ahmadabad,22.605425564971743,72.23898135593227,474,7214225,3788051,3426174,5435760,3025463,2410297,268954,2594952,1456046,126341,6042416,883238,50754,14542,209287,4518,2127547,467405,75.34780243200066,110.56213140371737
108,Gujarat,Amreli,21.04832649310872,71.43457637825426,480,1514190,771049,743141,995459,558180,437279,209935,657139,273331,2538,1410463,99105,919,415,2053,243,453642,203497,65.74201388200952,103.75541115346884
109,Gujarat,Anand,22.282718206229863,72.57782051557454,482,2092745,1087224,1005521,1551253,874481,676772,346329,844794,378310,9902,1798794,250919,29789,1524,8591,267,627561,217233,74.12527565470232,108.12543944880315
110,Gujarat,Banas Kantha,24.258538965517253,71.93205252873561,469,3120506,1610379,1510127,1704923,1048402,656521,350541,1248600,396873,3424,2890305,213505,1686,486,12659,281,836268,412332,54.63610709288814,106.63864694823681
111,Gujarat,Bharuch,21.75787276237761,72.67326346710801,488,1551019,805707,745312,1118276,623047,495229,253577,627124,309091,10257,1188204,343511,9494,1733,4813,442,468919,158205,72.09943914291186,108.10331780516078
112,Gujarat,Bhavnagar,21.70219390341736,72.16272632761141,481,2880365,1490201,1390164,1887255,1087371,799884,334025,1150632,500757,7297,2632574,212863,3457,1410,26974,445,838781,311851,65.52138357465113,107.1960574435822
113,Gujarat,Gandhinagar,23.193679790026252,72.67221679790026,473,1391753,723864,667889,1030494,582686,447808,129356,534976,262539,12107,1319586,57273,3237,1985,6405,497,408075,126901,74.04287973512541,108.38088364982804
114,Gujarat,Jamnagar,22.410600414263328,69.62062005768233,477,2160119,1114192,1045927,1396534,795140,601394,147193,847440,386538,11573,1810443,320805,4392,1873,18856,1086,646822,200618,64.65079007221361,106.5267461304661
115,Gujarat,Junagadh,20.929523011609785,70.54733890140345,479,2743082,1404356,1338726,1842818,1046981,795837,333996,1123709,498326,6628,2397056,334858,2586,1110,3841,1291,801859,321850,67.18056550988997,104.90242215359977
116,Gujarat,Kachchh,23.48057203301311,68.82192301497916,468,2092371,1096737,995634,1252319,739239,513080,183971,776228,403294,9631,1608921,442355,6192,6353,25312,490,624704,151524,59.851670664523645,110.15463513700819
117,Gujarat,Kheda,22.88765312500002,73.018803515625,483,2299885,1185727,1114158,1660243,942480,717763,359842,933983,372226,5710,2000884,264482,26629,1403,3479,300,674586,259397,72.18808766525284,106.4235952171954
118,Gujarat,Mahesana,23.529355452865065,72.45545194085031,471,2035064,1056520,978544,1502645,847499,655146,242969,812064,385609,7759,1885732,136431,1954,1082,7087,146,588699,223365,73.83772697074883,107.9685737176867
119,Gujarat,Narmada,21.70666386292833,73.68403208722742,487,590297,301086,289211,370336,211767,158569,188030,294795,101940,576,559848,22600,4413,147,373,80,174282,120513,62.73723227460075,104.10599873448795
120,Gujarat,Navsari,20.866973318871995,72.86184869848157,490,1329672,678165,651507,1001909,539471,462438,206608,591834,267679,6726,1225087,78669,5733,2459,13386,601,407881,183953,75.35008633708162,104.09174421763696
121,Gujarat,Panch Mahals,22.80435606837605,73.61984598290586,484,2390776,1226961,1163815,1440805,858054,582751,376038,1097507,398937,3456,2220974,158513,2863,662,5236,337,673565,423942,60.26516076788457,105.4257764335397
122,Gujarat,Patan,23.80634198473284,71.75162977099237,470,1343734,694397,649337,837913,494631,343282,227080,554830,223424,2231,1194745,142797,916,337,3602,66,383074,171756,62.3570587631183,106.93938586589088
123,Gujarat,Porbandar,21.55092351651571,69.71896987722886,478,585449,300209,285240,393678,221621,172057,48964,231169,117040,1653,549749,33565,500,248,515,91,174118,57051,67.24377358232742,105.24786145000702
124,Gujarat,Rajkot,22.40603377715488,70.83679439383323,476,3804558,1974445,1830113,2725056,1514075,1210981,214285,1479050,747352,21785,3397406,361388,5478,1918,33591,1170,1159480,319570,71.62608639426709,107.88650755445155
125,Gujarat,Sabar Kantha,23.71803594548552,73.13638790459964,472,2428589,1244231,1184358,1578734,918625,660109,333867,1084878,438606,5262,2260560,148563,6375,614,11110,168,681435,403443,65.00622377849854,105.05531266728471
126,Gujarat,Surat,21.25761372772093,72.93488716344339,492,6081322,3402224,2679098,4571410,2687468,1883942,325739,2553542,1252452,55694,5260193,660772,21052,5703,112835,12902,2142819,410723,75.17131965714033,126.99139785106779
127,Gujarat,Surendranagar,22.82672007299272,71.48358740875906,475,1756268,909917,846351,1093626,643221,450405,270861,723500,302068,2975,1620282,109681,1419,512,22992,312,504038,219462,62.269881362070024,107.51059548579727
128,Gujarat,The Dangs,20.801633877551023,73.6883518367347,489,228291,113821,114470,140968,77314,63654,40486,118257,29794,137,203545,3593,20029,69,39,32,61329,56928,61.749258621671466,99.43303922425089
129,Gujarat,Vadodara,22.26133739279589,73.49433010291594,486,4165626,2153736,2011890,2893080,1614087,1278993,570361,1693473,798277,53606,3713941,384579,23813,9340,27650,2069,1233312,460161,69.45126614823319,107.05038545844951
130,Gujarat,Valsad,20.44238231644259,72.9148584798345,491,1705678,887222,818456,1170657,655528,515129,183025,743245,329218,11020,1571147,94034,19661,1589,13809,913,516188,227057,68.63294244282918,108.40191775733821
131,Haryana,Ambala,30.3503672316384,76.94970310734456,70,1128350,598703,529647,818025,461288,356737,57293,372139,199681,12899,955096,22143,3705,138202,4845,381,320120,52019,72.49745203172775,113.03811784075053
132,Haryana,Bhiwani,28.728868064516128,76.02110225806452,81,1634445,866672,767773,1069871,643158,426713,103788,623006,266244,5292,1611031,15515,873,2401,1016,254,430678,192328,65.45775477302693,112.88128131622237
133,Haryana,Faridabad,28.14873109756098,77.32718536585368,88,1809733,966110,843623,1272739,734940,537799,29288,579229,333171,43437,1588407,161680,9743,34572,4883,640,476933,102296,70.32744609287668,114.51916318070987
134,Haryana,Fatehabad,29.57298318584072,75.54608716814157,78,942011,495360,446651,557578,327471,230107,97997,369083,153301,3210,779243,8360,996,150969,1172,171,263498,105585,59.19017930788494,110.90538250222208
135,Haryana,Gurgaon,28.043894789579163,77.01935130260523,86,1514432,816690,697742,1111116,638666,472450,27097,544716,305751,67087,1408801,70842,9725,15097,7451,944,432456,112260,73.3684972319655,117.04756199282829
136,Haryana,Hisar,29.23628731117825,75.84324682779452,80,1743931,931562,812369,1114311,670200,444111,144213,691621,285004,10132,1701061,21650,1945,12270,3620,334,488321,203300,63.89650737328484,114.67227331422052
137,Haryana,Jhajjar,28.59651868131869,76.61137142857145,83,958405,514667,443738,676091,399480,276611,44845,326534,168558,5034,945693,8247,734,1042,645,105,250020,76514,70.5433506711672,115.98443225506942
138,Haryana,Jind,29.45149821958457,76.29598575667653,77,1334152,713006,621146,832758,502049,330709,102071,523422,222462,5263,1276669,23016,889,29103,2594,172,368277,155145,62.41852502563427,114.78879361695962
139,Haryana,Kaithal,29.96068539094649,76.37698930041155,73,1074304,571003,503301,646529,385782,260747,85651,373899,187349,3724,974520,8232,1769,87558,351,265,292696,81203,60.18119638389133,113.45159258574888
140,Haryana,Karnal,29.703200647249204,76.87488025889972,74,1505324,797712,707612,978013,564516,413497,133723,516062,267223,11163,1341002,31650,2049,126207,1516,532,411646,104416,64.97026553751883,112.73296665404204
141,Haryana,Kurukshetra,30.05652659846548,76.78774680306903,72,964655,510976,453679,646893,370828,276065,85890,336780,171908,7356,805175,15970,1943,140395,375,214,268556,68224,67.05951868802836,112.6294141893277
142,Haryana,Mahendragarh,28.1352161458333,76.14018072916659,84,922088,486665,435423,630255,380440,249815,38320,338584,135455,2624,913251,5660,301,1737,644,75,232935,105649,68.35085154562255,111.7683264319983
143,Haryana,Panchkula,30.700897142857134,76.97173238095236,69,561293,299679,261614,405318,229862,175456,12827,211479,103455,18615,490702,23451,2583,40951,1626,1008,164865,46614,72.2114831291322,114.55006230553411
144,Haryana,Panipat,29.34352134146342,76.92895914634147,75,1205437,646857,558580,786599,464136,322463,62358,412318,209965,10024,1083936,86622,2261,25064,4647,289,328667,83651,65.25426048810515,115.80382398224067
145,Haryana,Rewari,28.19164714828897,76.55956007604564,85,900332,474335,425997,636947,375453,261494,28215,337727,152651,5121,889133,5713,701,1804,1525,202,235326,102401,70.74579155244955,111.34702826545725
146,Haryana,Rohtak,28.892517647058817,76.53123235294117,82,1061204,568479,492725,747582,436025,311557,36568,345967,193120,8482,1043887,8185,732,3916,3491,200,272646,73321,70.44658708410448,115.37449895986605
147,Haryana,Sirsa,29.63583446327684,74.90970480225988,79,1295189,682582,612607,782897,456968,325929,147042,502003,215527,6287,940255,9524,2186,338962,2256,370,369462,132541,60.446544867196984,111.422494356088
148,Himachal Pradesh,Bilaspur,31.3780422907489,76.65316079295157,30,381956,192764,189192,287620,155599,132021,4138,205871,79146,1574,371973,6984,236,2387,10,113,111543,94328,75.3018672307805,101.8880290921392
149,Himachal Pradesh,Bilaspur,31.3780422907489,76.65316079295157,406,2663629,1351574,1312055,1596560,932474,664086,572292,1203197,519704,8566,2540763,57973,20745,6373,2357,2979,715467,487730,59.939278330428145,103.01199263750375
150,Himachal Pradesh,Chamba,32.66741814595661,76.39354063116366,23,519080,261320,257760,323842,186064,137778,9193,294035,96082,1615,479782,32455,1559,2745,57,1740,158791,135244,62.3876859058334,101.38112973308505
151,Himachal Pradesh,Hamirpur,31.67668481012659,76.49767088607594,28,454768,217070,237698,358091,180555,177536,8824,241931,104120,2521,449412,3711,243,591,293,95,118724,123207,78.74146817718045,91.32176122643017
152,Himachal Pradesh,Hamirpur,31.67668481012659,76.49767088607594,168,1104285,593537,510748,653299,408125,245174,181449,443655,55929,1196,1010014,91269,814,196,41,74,308527,135128,59.16036168199332,116.20936352173675
153,Himachal Pradesh,Kangra,32.14093603238864,76.41205910931173,24,1510075,750591,759484,1152640,606443,546197,54849,675170,330081,8053,1461140,19797,3023,8929,194,14511,403756,271414,76.32998361008559,98.82907342353494
154,Himachal Pradesh,Kinnaur,31.60667184065933,78.51613736263741,34,84121,46249,37872,60699,36697,24002,2537,56273,17865,354,64732,448,485,249,29,18086,33863,22410,72.15677417054005,122.11924376848332
155,Himachal Pradesh,Kullu,31.90911922077925,77.40922649350647,26,437903,225452,212451,307672,174550,133122,12372,269084,91322,2623,415669,2974,1568,1396,94,15377,148829,120255,70.26030878984615,106.11952873839144
156,Himachal Pradesh,Mandi,31.635805940594054,76.96556930693067,27,999777,498065,501712,723747,393669,330078,15822,572671,214491,5333,981412,9460,876,4081,43,2628,297464,275207,72.39084315802424,99.2730889434576
157,Himachal Pradesh,Shimla,31.155725451807253,77.62573042168668,33,814010,425039,388971,612642,342846,269796,26114,430926,172754,9177,791449,11810,2025,4047,185,3262,258628,172298,75.26222036584316,109.27267071324083
158,Himachal Pradesh,Sirmaur,30.682764453961443,77.43184689507493,32,529855,276289,253566,362645,205617,157028,10730,280083,91509,2220,476830,33215,577,15501,236,2645,169399,110684,68.44230968849968,108.96137494774536
159,Himachal Pradesh,Solan,31.03864311926604,76.94442140672783,31,580320,308754,271566,428578,244372,184206,10283,298737,119866,5250,548579,14678,1452,13926,591,574,190001,108736,73.85201268265784,113.69390866308741
160,Himachal Pradesh,Una,31.58330388349513,76.18353932038836,29,521173,263692,257481,399715,213281,186434,19604,215346,105929,2412,480138,14275,390,26009,70,56,141612,73734,76.69526241766171,102.41221682376565
161,Jammu and Kashmir,Doda,33.359614675767915,76.07163720136518,16,409936,213641,196295,219083,138620,80463,12199,151912,61831,596,187621,220614,472,422,22,21,101144,50768,53.443220405136415,108.8366998649991
162,Jammu and Kashmir,Jammu,32.713199095022645,74.8477520361991,21,1529958,813821,716137,1137135,641916,495219,36873,508622,294739,19905,1289240,107489,12104,114272,1987,470,417456,91166,74.32458930245144,113.64040679367216
163,Jammu and Kashmir,Kargil,33.565994894894914,76.63675315315312,4,140802,77785,63017,86236,56301,29935,3763,51873,15824,235,10341,108239,604,1171,28,20126,39839,12034,61.246289115211425,123.43494612564862
164,Jammu and Kashmir,Kathua,32.51781678321678,75.58901398601404,7,616435,326109,290326,389204,228499,160705,21566,200431,109422,1443,540063,64234,1828,9551,16,24,161548,38883,63.1378815284661,112.32511039314426
165,Jammu and Kashmir,Pulwama,33.88414418604652,75.00921860465118,12,560440,293064,267376,293958,178326,115632,34080,188420,73629,1537,13840,535159,1109,9440,6,35,138428,49992,52.451288273499394,109.60744419843218
166,Jammu and Kashmir,Punch,33.791241290322574,74.29593161290322,5,476835,251899,224936,261724,163333,98391,31583,161393,62900,346,32604,431279,958,11188,10,83,117677,43716,54.88774943114495,111.9869651812071
167,Jammu and Kashmir,Srinagar,34.27312898550724,75.11021159420288,10,1236829,651124,585705,748584,431746,316838,10408,407188,165403,16413,42540,1177342,2746,12187,74,285,333151,74037,60.52445406761969,111.16927463484177
168,Jammu and Kashmir,Udhampur,33.04770670731707,75.15286951219511,19,554985,296784,258201,322354,197543,124811,11396,243672,73999,1214,489044,59771,1962,3418,57,106,163845,79827,58.083371622656465,114.9430095158423
169,Jharkhand,Bokaro,23.6814965034965,85.98398374125864,355,2062330,1072807,989523,1273520,759088,514432,126406,685368,274726,9754,1636460,241451,13730,4174,2045,1890,507677,177691,61.75151406418953,108.41658051404566
170,Jharkhand,Chatra,24.11619945750453,84.93295804701627,347,1042886,533935,508951,510061,303902,206159,188513,397690,27037,590,903179,116710,6565,888,129,35,251213,146477,48.908605542695945,104.9089205051174
171,Jharkhand,Deoghar,24.33070100755672,86.75697632241814,350,1492073,775022,717051,793538,489837,303701,209693,551467,130193,1944,1165140,302626,6027,143,282,188,383691,167776,53.18359088328788,108.08464112036663
172,Jharkhand,Dhanbad,23.854509090909097,86.40372924901185,354,2684487,1405956,1278531,1722204,1014950,707254,103488,844504,427173,11568,2149480,431762,11243,9727,1268,331,658851,185653,64.15393332133849,109.96651625967615
173,Jharkhand,Dumka,24.275006125574265,87.27662450229711,362,1321442,668514,652928,672409,406275,266134,303084,624779,62110,1193,1044726,106865,86404,234,162,267,367108,257671,50.88448830898366,102.38709321701627
174,Jharkhand,Garhwa,24.082114689265527,83.68664265536722,346,1322784,683575,639209,653476,405161,248315,328673,571431,29373,565,1104475,194680,17168,123,20,371,335451,235980,49.4015651837337,106.94076585279619
175,Jharkhand,Giridih,24.30578509874329,86.08710915619386,349,2445474,1258098,1187376,1253475,783736,469739,362610,1036277,125431,1944,1856202,508586,14645,937,1503,650,623946,412331,51.256934238515726,105.9561587904758
176,Jharkhand,Godda,24.8189,87.2941735483871,351,1313551,677927,635624,604519,376212,228307,307767,552191,43230,874,937126,289182,37795,97,115,128,344019,208172,46.02173802159185,106.65534970359836
177,Jharkhand,Gumla,23.078532948929148,84.55056787479396,366,1025213,514390,510823,559720,321795,237925,97918,487508,31687,831,309563,51429,202449,221,23,531,264774,222734,54.5954840603855,100.69828492452375
178,Jharkhand,Jamtara,23.97873318077801,86.95325080091534,363,791042,404830,386212,426312,258260,168052,135667,326631,49419,808,550560,164406,4419,520,783,118,214740,111891,53.89246083014555,104.82066844116702
179,Jharkhand,Latehar,23.72511185840708,84.48298743362837,359,726978,369666,357312,350682,209706,140976,142729,313379,38194,340,473049,69808,47653,120,16,128,180106,133273,48.23832358063105,103.45748253627083
180,Jharkhand,Lohardaga,23.488796043165483,84.6605169064748,356,461790,232629,229161,259707,149568,110139,80840,221332,28769,351,112378,95012,16770,51,15,33,121605,99727,56.239199636198265,101.51334651184104
181,Jharkhand,Pakur,24.57260428082189,87.69691969178076,353,900422,452661,447761,352881,206989,145892,150028,404584,31414,328,410127,322963,75865,356,222,283,234012,170572,39.19062395188034,101.09433380754464
182,Jharkhand,Palamu,24.196925968109337,84.20310842824594,358,1939869,1006302,933567,1024563,621706,402857,380976,713175,68238,2155,1683169,238295,6164,734,284,188,473042,240133,52.81609222066026,107.79108516046519
183,Jharkhand,Ranchi,23.184235061391547,85.31781937244203,364,2914253,1494937,1419316,1911433,1085244,826189,267360,1142867,350908,22538,1612239,410759,193974,4826,2733,932,743967,398900,65.58912352496506,105.32798897497105
184,Jharkhand,Sahibganj,24.93667989690721,87.68264097938142,352,1150567,589391,561176,483263,287303,195960,206902,490202,34879,591,628044,398243,83208,198,125,245,295690,194512,42.00216067382429,105.02783440489259
185,Jharkhand,Simdega,22.608760391198054,84.59193691931536,367,599578,300309,299269,343483,191991,151492,90232,288645,16865,423,201524,15103,306601,51,114,753,159867,128778,57.28745884605506,100.34751344108477
186,Karnataka,Bagalkot,16.15860676328503,75.64526070853468,556,1889752,950111,939641,1113412,641388,472024,303243,818081,301389,3745,1634229,219991,3433,443,25198,412,511575,306506,58.9184189248113,101.1142553379429
187,Karnataka,Bangalore Rural,12.936827087794448,77.47369314775169,583,990923,509172,481751,688749,385311,303438,84108,459891,214253,3729,890429,92252,5368,389,1045,272,315499,144392,69.50580418458347,105.69194459378393
188,Karnataka,Belgaum,16.16107219152853,74.72329042357275,555,4779661,2423063,2356598,3052032,1725548,1326484,649517,2105668,808827,17560,4038331,528412,18418,2037,178310,1086,1372422,733246,63.85457043920061,102.82037920765444
189,Karnataka,Bellary,15.074377548209377,76.47228471074374,565,2452595,1236954,1215641,1421621,813440,608181,406092,1116880,440374,9626,2103633,320834,14014,1029,8044,284,703258,413622,57.96395246667305,101.7532314227638
190,Karnataka,Bidar,17.950361730769224,77.19459961538459,558,1703300,870665,832635,1042673,597198,445475,280091,702608,271439,3971,1289709,335184,35438,1145,680,30453,459050,243558,61.21487700346386,104.56742750424857
191,Karnataka,Bijapur,16.84015316666667,75.95909166666665,417,255230,128663,126567,86919,54076,32843,49859,134525,12516,117,245151,1617,2709,68,15,1649,71591,62934,34.05516592877013,101.65603988401399
192,Karnataka,Bijapur,16.84015316666667,75.95909166666665,557,2177331,1111022,1066309,1248268,730566,517702,351600,927722,326594,4987,1786830,369588,2433,558,8665,374,580111,347611,57.330190035414915,104.19324979907326
193,Karnataka,Chikmagalur,13.425288289676422,75.67626502311249,570,1137961,566622,571339,818345,438257,380088,126600,565774,238505,4510,1004553,101235,26000,182,4710,109,357889,207885,71.91327295047897,99.1743955865082
194,Karnataka,Chitradurga,14.29102220394736,76.57821957236843,566,1659456,840843,818613,1087392,607188,480204,294337,856587,307257,5711,1520553,128751,3175,322,3778,84,513311,343276,65.52701608237881,102.71556889519225
195,Karnataka,Davanagere,14.330414586709884,75.91723841166937,567,1945497,986400,959097,1308540,720637,587903,295873,875207,372671,7320,1658465,265805,5420,307,6417,164,585639,289568,67.25993409396159,102.84674021501475
196,Karnataka,Dharwad,15.343831376975173,75.13831264108359,562,1847023,937206,909817,1301664,711776,589888,207642,784833,347962,15013,1390020,386834,28747,1486,29037,715,543776,241057,70.47362160622797,103.01038560501728
197,Karnataka,Gadag,15.507128256880746,75.64861302752298,561,1064570,537147,527423,700177,397178,302999,200310,495722,198064,3373,907750,143665,3432,231,5993,79,310412,185310,65.77087462543562,101.84368144733924
198,Karnataka,Gulbarga,17.070459515951594,76.87503850385033,579,2566326,1301755,1264571,1427368,828359,599009,415267,1087028,404767,9752,2011014,513125,8344,826,4865,9589,680001,407027,55.61912243417243,102.94044383431218
199,Karnataka,Hassan,12.945098749999998,76.11049549999997,574,1776421,883667,892754,1225256,668836,556420,165910,903580,400702,4851,1630814,120011,15611,289,5820,623,560452,343128,68.9732895524203,98.9821384166299
200,Karnataka,Haveri,14.737582809224318,75.3961230607966,564,1597668,819128,778540,1085443,603793,481650,311263,730066,295937,2456,1281878,297927,2406,419,9834,68,490731,239335,67.93920889696733,105.21334806175662
201,Karnataka,Kodagu,12.39684468085106,75.79336595744688,576,554519,274608,279911,412877,215302,197575,15153,278938,113931,3308,448986,87274,17130,139,250,126,172100,106838,74.4567814628534,98.1054692384365
202,Karnataka,Kolar,13.312799881235172,78.01376947743476,581,1536401,776396,760005,1016219,564110,452109,201233,717872,309494,5051,1305431,199873,26722,253,2494,150,454048,263824,66.14282339050807,102.1566963375241
203,Karnataka,Koppal,15.651253271028034,76.1617048598131,560,1389920,699926,689994,809085,468785,340300,273016,654766,223166,2135,1218024,161770,4081,296,2898,85,387974,266792,58.210904224703576,101.43943280666208
204,Karnataka,Mandya,12.574901806239744,76.81570098522172,573,1805769,905085,900684,1149649,638668,510981,216159,871408,391033,3367,1712695,77801,8506,322,3607,299,575203,296205,63.66534146947921,100.48862864223192
205,Karnataka,Mysore,12.248100259403367,76.52881802853437,577,3001127,1511600,1489527,1962180,1063766,898414,311002,1314268,640868,28397,2631985,290549,39361,1255,14419,16194,921803,392465,65.38143837298455,101.48187981822419
206,Karnataka,Raichur,16.050795353982295,76.87368606194688,559,1928812,964511,964301,979769,577213,402556,383526,903413,314547,5200,1634062,272022,10394,538,4156,2265,530373,373040,50.79650064391967,100.02177743256514
207,Karnataka,Shimoga,14.063845885634592,75.17882078103197,568,1752753,877415,875338,1263016,674938,588078,246464,780598,363835,8791,1479424,234664,26521,400,9234,120,534487,246111,72.058983781514,100.23727977078569
208,Karnataka,Tumkur,13.592467760074973,77.02297966260545,571,2678980,1350594,1328386,1813391,1006024,807367,352286,1354646,562769,7971,2413812,245923,9130,477,5067,187,837512,517134,67.68960574547029,101.6718032258696
209,Karnataka,Udupi,13.450404228534568,74.72009990316337,569,1177361,562131,615230,926429,465704,460725,63390,513241,224814,9070,1009179,96740,65838,232,4534,161,335399,177842,78.68691081155228,91.36924402256066
210,Kerala,Alappuzha,9.542602965599087,76.38010796263319,598,2127789,1013142,1114647,1852797,890552,962245,71706,804471,507913,28842,1460447,224545,435056,268,74,146,536738,267733,87.07616215705599,90.8935295210053
211,Kerala,Ernakulam,10.004879301987431,76.26957729035381,595,3282388,1619557,1662831,2855676,1425723,1429953,71391,1249343,771287,88737,1509557,514397,1248137,860,1176,614,913249,336094,86.99995247362591,97.39757076936863
212,Kerala,Idukki,9.80480963855423,77.04586641566264,596,1108974,552808,556166,923010,471881,451129,145698,516363,244844,8250,541854,82206,481507,100,44,189,331710,184653,83.23098647939446,99.39622342969545
213,Kerala,Kannur,11.941523076923056,75.35209891725934,589,2523003,1181446,1341557,2138434,1012956,1125478,82988,824116,511167,32653,1509592,742483,262526,424,193,1118,609377,214739,84.75748938863728,88.06528533636663
214,Kerala,Kasaragod,12.33310309912974,75.07768497134369,588,1307375,628613,678762,1037492,516476,521016,38774,462998,237670,10378,729987,486913,87454,151,130,362,325095,137903,79.35687924275744,92.61169599948141
215,Kerala,Kollam,8.929388820570157,76.6360775852431,600,2635375,1246968,1388407,2240273,1074345,1165928,92193,912025,630767,31542,1697635,508500,421598,208,63,272,644362,267663,85.00775032016317,89.81285746902745
216,Kerala,Kottayam,9.643701174068417,76.46059673302705,597,1974551,968289,1006262,1749798,861592,888206,63052,735735,464039,37849,983598,126499,858608,204,83,358,530322,205413,88.61751355118201,96.22633071704983
217,Kerala,Kozhikode,11.392924270557026,75.71158720159153,591,3086293,1470942,1615351,2615443,1266939,1348504,64198,948981,641660,36791,1734958,1211131,131516,297,601,235,752333,196648,84.74383345975252,91.06020920530584
218,Kerala,Malappuram,10.97329875666072,75.93910775606876,592,4112920,1960328,2152592,3311315,1597404,1713911,117405,1062424,730119,27909,1135259,2888849,81556,205,68,179,898157,164267,80.51007556675063,91.06825631610636
219,Kerala,Palakkad,10.784926903553291,76.49980490693744,593,2809934,1359478,1450456,2239492,1122600,1116892,249949,1042340,587583,27162,1875980,812936,114397,220,78,238,746121,296219,79.69909613535407,93.72762772534982
220,Kerala,Thiruvananthapuram,8.537101759082221,76.88711502868073,601,3301427,1581678,1719749,2785408,1354857,1430551,94470,1231669,783872,71621,2194057,452915,630573,404,76,301,864101,367568,84.36981947503307,91.97144467012338
221,Kerala,Thrissur,10.458932647907687,76.12321940836945,594,3121200,1480763,1640437,2678548,1282261,1396287,73941,1095727,721625,56148,1823442,532839,757484,259,62,278,789511,306216,85.81789055491478,90.2663741429875
222,Kerala,Wayanad,11.715277464788736,76.07587007042254,590,817420,401684,415736,645585,328136,317449,101630,340077,149864,4712,404460,234185,174453,61,1797,312,228639,111438,78.97837097208289,96.61997036580907
223,Madhya Pradesh,Anuppur,23.18184220430107,81.86560000000007,461,749237,379114,370123,436595,254120,182475,130376,346471,81338,1290,686524,21473,2132,606,1653,86,207401,139070,58.27194866243926,102.42919245764246
224,Madhya Pradesh,Ashoknagar,24.63098846153845,77.82974493927134,459,845071,443837,401234,469109,290304,178805,122387,315270,84720,619,778214,40707,635,8009,15094,1352,231829,83441,55.51119373401762,110.6179934900831
225,Madhya Pradesh,Balaghat,21.80020720640569,80.42170053380796,457,1701698,842178,859520,1147623,626468,521155,459796,893014,277927,1712,1519384,38542,5295,1050,4778,72162,488610,404404,67.43987476038639,97.98236224869696
226,Madhya Pradesh,Barwani,21.702135714285724,74.91004719710673,441,1385881,699340,686541,549926,313642,236284,267196,653897,181139,1158,1318869,58222,2967,2361,2289,416,365928,287969,39.68060749804636,101.86427321893376
227,Madhya Pradesh,Betul,21.964626315789477,77.7873428189117,447,1575362,799236,776126,939769,529783,409986,358157,786980,230974,2109,1505745,37590,3271,1078,3759,9651,453887,333093,59.654162027521295,102.97760930570551
228,Madhya Pradesh,Bhind,26.35951126187245,78.7618324287653,420,1703005,926843,776162,1094917,676513,418404,158266,520768,107819,1166,1595400,66776,973,4047,19950,12215,455775,64993,64.29323460588783,119.4136017996243
229,Madhya Pradesh,Bhopal,23.480726143790854,77.39246623093679,444,2371061,1236130,1134931,1660690,920314,740376,105195,867457,452912,40788,1755861,525434,23432,10789,25950,21688,644960,222497,70.03995257819179,108.91675352950972
230,Madhya Pradesh,Burhanpur,21.364567254408065,76.24460478589425,467,757847,388504,369343,408679,233073,175606,156295,328339,112420,986,552526,180840,1199,1074,1884,19883,211925,116414,53.92632022030832,105.18786060653646
231,Madhya Pradesh,Chhatarpur,24.813637376460004,79.56449299191374,425,1762375,936121,826254,943033,572010,371023,238364,751797,176056,1880,1676918,70351,1980,968,10409,250,481518,270279,53.50921341939144,113.29700068017826
232,Madhya Pradesh,Chhindwara,22.227966971713823,78.76413136439254,455,2090922,1064468,1026454,1294198,731294,562904,422668,957984,344875,3588,1923920,100692,4893,2258,7830,24471,582263,375721,61.89604394616346,103.70342947662536
233,Madhya Pradesh,Damoh,23.76624407960196,79.47049303482588,428,1264219,661873,602346,747715,445737,301978,250165,574595,187731,1432,1186420,47966,1681,1096,25005,119,367711,206884,59.1444203891889,109.8825259900456
234,Madhya Pradesh,Datia,25.90226439560441,78.63916571428574,422,786754,420157,366597,491445,303815,187630,93744,321160,97696,616,747693,28483,683,490,453,7923,225662,95498,62.46488737267304,114.61004863651367
235,Madhya Pradesh,Dewas,22.7851110021322,76.46088805970157,437,1563715,805359,758356,925369,550716,374653,310606,742676,270457,3518,1376591,174259,2355,2330,6497,382,451501,291175,59.17759949862986,106.1980125429218
236,Madhya Pradesh,Dhar,22.572681718963157,75.1105620736698,438,2185793,1112725,1073068,1077338,638479,438859,437437,1027974,349639,2388,2051219,116202,2261,1607,12199,328,597079,430895,49.28819883676084,103.69566513958108
237,Madhya Pradesh,Dindori,22.83738437047757,81.04332966714911,453,704524,351913,352611,378714,222759,155955,190962,389925,62372,554,605435,6736,4238,260,687,61,203383,186542,53.754591752729496,99.80204814937707
238,Madhya Pradesh,Guna,24.49043927178156,77.2235895968791,458,1241519,649362,592157,653980,400537,253443,175615,514897,144248,2482,1172248,49203,1208,3271,13474,529,335454,179443,52.67579473209834,109.66044478069162
239,Madhya Pradesh,Gwalior,26.04074441964285,78.12782433035713,421,2032036,1090327,941709,1357210,803114,554096,120348,685311,306859,15779,1835299,141735,4119,24790,18058,4361,548820,136491,66.79064740978998,115.78173299819797
240,Madhya Pradesh,Harda,22.227659781121783,77.07022571819435,448,570465,294838,275627,352550,203807,148743,101256,230979,95066,986,527462,38640,683,676,1573,93,156852,74127,61.80046102740746,106.96992674883086
241,Madhya Pradesh,Hoshangabad,22.595268801996703,78.02168094841929,449,1241350,648725,592625,810644,469199,341445,181967,478082,198076,2871,1175203,52269,4453,3127,3888,1550,345435,132647,65.3034196640754,109.46635730858469
242,Madhya Pradesh,Indore,22.680265752128648,75.9133801324502,439,3276697,1699627,1577070,2309130,1289631,1019499,185528,1268195,593576,48691,2728225,415142,18523,25696,71667,11496,939055,329140,70.47127030665331,107.77118327024165
243,Madhya Pradesh,Jabalpur,23.18525572327043,79.98328754716981,451,2463289,1277278,1186011,1756468,980307,776161,283636,1005624,452023,20443,2159065,203652,23142,13256,33728,4320,705970,299654,71.30580293258323,107.69529119038526
244,Madhya Pradesh,Jhabua,22.419578015397768,74.40921616766468,464,1025048,515023,510025,352081,214582,137499,115649,515121,125411,744,960925,15733,38423,141,8871,65,265489,249632,34.34775737331325,100.97995196313907
245,Madhya Pradesh,Katni,23.724416229116937,80.33819665871127,450,1292042,662013,630029,790773,460583,330190,223902,543874,172416,2179,1240650,37232,3158,1167,5342,157,348410,195464,61.20335097465872,105.076591712445
246,Madhya Pradesh,Mandla,22.70348712446353,80.38600543633753,454,1054905,525272,529633,604962,348033,256929,318909,559649,143803,912,849518,16558,12450,436,1789,297,300235,259414,57.347533664168814,99.17659964541484
247,Madhya Pradesh,Mandsaur,24.19278764044944,75.43588667736759,433,1340411,682851,657560,834591,502898,331693,266350,679723,239885,2324,1192588,125548,1120,849,19029,242,397714,282009,62.26381311403741,103.84618894093313
248,Madhya Pradesh,Morena,26.37313504531724,77.88447341389724,419,1965970,1068417,897553,1179685,747652,432033,148222,675993,131486,1781,1875495,76159,1092,557,6681,3234,525329,150664,60.00523914403577,119.03664741803549
249,Madhya Pradesh,Neemuch,24.70311893333336,75.06608186666664,432,826067,422653,403414,508834,307889,200945,136330,418682,145258,1945,741288,67324,1508,1110,14165,224,245708,172974,61.59718279510016,104.76904619076184
250,Madhya Pradesh,Panna,24.451325840092657,80.21133001158752,426,1016520,533480,483040,552559,332140,220419,198847,431998,76097,653,974748,35214,418,186,4734,37,275375,156623,54.35790737024357,110.44219940377609
251,Madhya Pradesh,Raisen,23.292518206521724,78.16305495923909,446,1331597,700358,631239,820220,479093,341127,228151,517838,194373,1141,1195235,120331,1725,2262,10637,253,370366,147472,61.59671432122481,110.94973536172512
252,Madhya Pradesh,Rajgarh,23.785499026425583,76.66431223922116,442,1545814,790212,755602,804245,488797,315448,330820,745603,231130,1611,1433879,106928,1243,460,1599,121,429768,315835,52.0272814193687,104.58045373093243
253,Madhya Pradesh,Ratlam,23.503562290502792,75.14895782122909,434,1455069,738241,716828,825880,485090,340790,305946,690980,213825,3644,1267043,151071,3996,1353,29353,175,411446,279534,56.75882037209232,102.98718800046873
254,Madhya Pradesh,Rewa,24.861184625158856,81.57572465057183,430,2365106,1225100,1140006,1441757,845572,596185,463506,991946,251132,3406,2268838,85414,1964,832,655,986,617184,374762,60.959508791572134,107.46434667887712
255,Madhya Pradesh,Sagar,23.800318709677374,78.71940357771273,427,2378458,1256257,1122201,1545719,908607,637112,378560,1006035,366494,4546,2198297,103480,5580,4146,62992,991,682077,323958,64.98828232409402,111.94581006432894
256,Madhya Pradesh,Satna,24.62777621776502,80.75547048710598,429,2228935,1157495,1071440,1371781,801051,570730,371584,911349,294702,3754,2158623,59471,2228,1163,3135,364,590487,320862,61.54423525136444,108.0317143283805
257,Madhya Pradesh,Sehore,22.9297199679658,77.06780202883085,445,1311332,683743,627589,780362,469208,311154,227026,586087,212138,1566,1163607,137980,1404,640,6232,357,364559,221528,59.509109821158944,108.94757556298788
258,Madhya Pradesh,Seoni,22.33230487804874,79.66053863928111,456,1379131,695879,683252,864194,485341,378853,376404,684434,228695,1182,1145052,79739,1857,360,4982,7288,394660,289774,62.66221265420037,101.84807362437284
259,Madhya Pradesh,Shahdol,23.44859864559819,81.4596831828442,460,1066063,540021,526042,604194,348761,255433,258991,493057,113184,1733,997073,42426,2372,912,1737,268,292402,200655,56.67526215617651,102.65739237551375
260,Madhya Pradesh,Shajapur,23.566620317220547,76.33555181268885,436,1512681,780520,732161,894612,543509,351103,303157,717871,232735,1382,1321003,174724,815,631,13755,179,431857,286014,59.14082347831433,106.60496803298729
261,Madhya Pradesh,Sheopur,25.78014810996563,77.16911116838484,418,687861,361784,326077,328025,208201,119824,115261,277455,74770,273,638702,41396,230,6387,379,201,183788,93667,47.687686901859536,110.95048102135385
262,Madhya Pradesh,Shivpuri,25.37802451874367,77.74861600810549,423,1726050,919795,806255,900846,573242,327604,220440,759281,148128,1852,1648749,51200,1117,7151,12171,3421,481001,278280,52.19118797253846,114.08239328748348
263,Madhya Pradesh,Sidhi,24.17547189952905,82.1053783359498,462,1127033,575912,551121,600785,353030,247755,262030,461760,102228,837,1077545,34419,511,128,93,92,284289,177471,53.306779836970165,104.49828622026742
264,Madhya Pradesh,Tikamgarh,25.14099852104666,78.89357064846428,424,1445166,760355,684811,747940,459353,288587,223852,655318,132725,1090,1383475,44143,588,251,15569,109,402776,252542,51.75460812114318,111.03136485833318
265,Madhya Pradesh,Ujjain,23.319288862745065,75.80383717647058,435,1986864,1016289,970575,1240990,730817,510173,302003,897442,323379,7501,1718204,233133,4659,3241,24622,945,569425,328017,62.45973554304673,104.7099914998841
266,Madhya Pradesh,Umaria,23.59601063063061,80.90879477477475,431,644758,330674,314084,356672,210907,145765,145690,289691,67975,839,620515,15966,667,190,220,70,175698,113993,55.318739744214106,105.28202646425797
267,Madhya Pradesh,Vidisha,23.82838307984792,77.9013507604563,443,1458875,769568,689307,862918,512344,350574,228308,550402,181510,1926,1287391,149548,1313,914,18490,295,401583,148819,59.1495501670808,111.64372333372503
268,Maharashtra,Akola,20.746310479041902,77.12122320359276,501,1813906,932334,881572,1411281,758977,652304,388521,768154,314490,6163,1107809,357253,4483,1504,10205,328033,520362,247792,77.80342531531403,105.75812298938713
269,Maharashtra,Amravati,21.16520991810736,77.67583503184723,503,2888445,1480768,1407677,2251875,1207104,1044771,667943,1236322,512492,9438,2055177,421410,7223,2242,11360,383891,837577,398745,77.96149831483721,105.19231329346151
270,Maharashtra,Aurangabad,20.0979228832952,75.32072196796334,235,2540073,1318684,1221389,1466002,868733,597269,426096,837770,44456,2362,2291133,237353,2218,295,775,334,599157,238613,57.71495543632014,107.96593059213731
271,Maharashtra,Aurangabad,20.0979228832952,75.32072196796334,515,3701282,1924469,1776813,2503837,1430936,1072901,396630,1575079,589477,23258,2545438,786677,15991,5142,30981,309093,1015864,559215,67.64783121091557,108.31015981985723
272,Maharashtra,Bhandara,21.211792649727748,80.10950199637024,506,1200334,605520,594814,899860,488709,411151,312183,597305,227025,2932,1009352,26502,2145,831,1017,154458,345054,252251,74.9674673882436,101.79989038590216
273,Maharashtra,Bid,18.952353340080982,75.69319706477731,523,2585049,1349106,1235943,1718507,987185,731322,373566,1255548,402052,5614,2174672,320395,2097,824,8719,68482,727819,527729,66.4787011774245,109.15600476721015
274,Maharashtra,Buldana,20.56680611183355,76.39017880364096,500,2586258,1337560,1248698,1879874,1048892,830982,603227,1219641,423036,4767,1845424,354236,3531,1668,12242,364229,734024,485617,72.68702503771858,107.11637241350591
275,Maharashtra,Chandrapur,20.095609090909075,79.31556380471388,509,2204307,1123834,1080473,1578615,872565,706050,473983,1058172,418666,8239,1780085,92297,10701,5251,3861,286734,648565,409607,71.61502458595831,104.01314979643175
276,Maharashtra,Dhule,21.274018690400517,74.58719071837263,498,2050862,1054031,996831,1293916,723388,570528,429536,936370,315332,6065,1825460,187901,3653,1422,12818,13405,570448,365922,63.09132452597981,105.73818430606592
277,Maharashtra,Gondiya,21.225008411214997,80.17522698598128,507,1322507,661554,660953,1004243,542837,461406,281414,665419,239981,2866,1153861,26157,1827,2160,1568,125282,383151,282268,75.93479656440381,100.09092930964833
278,Maharashtra,Hingoli,19.59525302245251,77.09239412780653,512,1177345,606294,571051,790743,450551,340192,226483,569182,159114,1221,863199,127552,992,643,5278,176679,330903,238279,67.16323592489883,106.17160288660732
279,Maharashtra,Jalgaon,20.8828943415638,75.55140421810695,499,4229917,2197365,2032552,2891882,1629223,1262659,937174,1863571,720791,14297,3457615,560261,7091,3091,27404,143865,1186472,677099,68.36734621506758,108.10867323443631
280,Maharashtra,Jalna,19.984612534818933,75.98473607242339,514,1959046,1011473,947573,1195523,699428,496095,300937,930886,288895,3791,1504641,274221,12542,1629,9619,152540,545030,385856,61.02577479038267,106.74354376918717
281,Maharashtra,Kolhapur,16.44881301587301,74.12897150793648,530,3876001,1980658,1895343,2825845,1559760,1266085,266028,1704054,770005,22269,3379906,286558,15573,1570,154882,29766,1125204,578850,72.90619894060914,104.50129607147625
282,Maharashtra,Latur,18.348687268993856,76.75812607802874,524,2454196,1273140,1181056,1650672,932432,718240,416578,1046857,381722,6217,2006984,367664,2387,935,6387,66535,670018,376839,67.25917571375717,107.79675138181423
283,Maharashtra,Nagpur,21.196556862745105,79.02166176470584,505,4653570,2384975,2268595,3673808,1959220,1714588,423587,1868560,917626,57964,3492202,390974,34667,20469,24528,668050,1334211,534349,78.94601349071789,105.13004745227774
284,Maharashtra,Nanded,19.209316983017,77.6829048951049,511,3361292,1730075,1631217,2189425,1255222,934203,632395,1493953,488748,7548,2501741,471951,3902,13540,5049,354189,925232,568721,65.13641183211693,106.06038313725274
285,Maharashtra,Nandurbar,21.523175625248147,74.32638757443429,497,1648295,833170,815125,906509,512099,394410,438176,792065,186202,2579,1521618,96182,8467,685,6191,4969,442898,349167,54.99676938897466,102.21377089403465
286,Maharashtra,Nashik,20.266912871287143,74.03824168316828,516,6107187,3157186,2950001,4345366,2397538,1947828,730228,2763328,904710,45039,5237009,693052,23946,8912,38212,94783,1746286,1017042,71.15167752354725,107.0232179582312
287,Maharashtra,Osmanabad,18.19459456066944,75.99495575313809,525,1657576,861535,796041,1137810,644304,493506,299525,773916,240042,3209,1437623,178925,942,340,4530,28216,473795,300121,68.64300641418554,108.22746567073807
288,Maharashtra,Parbhani,19.31032425249168,76.70163338870431,513,1836086,942870,893216,1157814,666291,491523,317806,822797,272486,3982,1328385,306364,2081,1371,6238,187899,501422,321375,63.058810970727954,105.55901372120518
289,Maharashtra,Pune,18.51696171428573,74.12922881632647,521,9429408,4924105,4505303,7171723,3940210,3231513,414461,4048993,1925019,235018,8090254,673704,134192,27090,127786,340404,2809816,1239177,76.05698045943076,109.29575657841437
290,Maharashtra,Raigarh,18.453257637845976,73.0090609418579,403,1493984,750278,743706,951639,542756,408883,323788,690167,297308,3342,1422986,17332,47653,2117,409,781,429211,260956,63.6980717330306,100.88368253046231
291,Maharashtra,Raigarh,18.453257637845976,73.0090609418579,520,2634200,1344345,1289855,1939994,1059692,880302,191182,1072969,547206,38570,2239370,227465,17452,7477,12260,121791,753843,319126,73.64642016551515,104.22450585530932
292,Maharashtra,Ratnagiri,17.210195070127703,73.25725893866404,528,1615069,761121,853948,1199392,619012,580380,153117,714076,367352,7752,1307211,187197,1990,230,3347,113467,407008,307068,74.26258568519364,89.1296659749774
293,Maharashtra,Sangli,17.154930181086502,74.70713822937628,531,2822143,1435728,1386415,2049467,1121550,927917,290693,1215104,485126,13212,2440312,239607,9098,1260,87453,38210,800214,414890,72.62094798172878,103.55687149951494
294,Maharashtra,Satara,17.6737908974359,74.18052064102558,527,3003741,1510842,1492899,2225694,1201034,1024660,297241,1354947,562653,14093,2691952,146970,4408,1182,12810,141315,844805,510142,74.09740054152472,101.20188974605784
295,Maharashtra,Sindhudurg,16.170948049777163,73.51329008172343,529,849651,417332,432319,666067,348289,317778,81816,347178,194228,3517,780384,26264,15471,219,1046,24762,229676,117502,78.39301077736623,96.53334690355963
296,Maharashtra,Solapur,17.837357937584812,75.42394823609216,526,4317756,2227852,2089904,2910676,1651266,1259410,558334,1898395,595560,15145,3795424,441254,9882,1279,28134,35497,1206933,691462,67.41177593175715,106.60068596452277
297,Maharashtra,Thane,19.698767747440264,72.79882742564581,517,11060148,5865078,5195070,8227161,4591396,3635765,418004,4492767,2231800,256170,8716055,1355630,280700,39149,172052,449617,3363123,1129644,74.38563209099914,112.89699657559954
298,Maharashtra,Wardha,20.80743024390242,78.57259105691062,504,1300774,668385,632389,1019458,552617,466841,282170,608235,266155,4313,1057096,53854,2696,2147,5663,175417,392316,215919,78.37318396585418,105.69206611753208
299,Maharashtra,Washim,20.282282394366213,77.25502394366208,502,1197160,620302,576858,869917,487703,382214,310195,569792,196022,1875,859949,142672,1707,518,8476,179330,340353,229439,72.66505730228207,107.53114284624638
300,Maharashtra,Yavatmal,20.04258346738159,78.05326371760479,510,2772348,1419965,1352383,2022574,1115980,906594,739718,1355999,446516,6094,2251401,239236,4567,1596,11422,249874,815475,540524,72.9552711275785,104.99725299711693
301,Manipur,Bishnupur,24.50712111801243,93.8246236024845,275,237399,118782,118617,156333,87313,69020,15109,109937,34364,676,175102,18691,4264,56,16,76,62807,47130,65.85242566312411,100.13910316396468
302,Manipur,Chandel,24.2635812987013,94.09443844155844,280,144182,74579,69603,90302,51053,39249,8315,76238,18764,184,10810,3086,129049,136,59,400,42615,33623,62.630564148090606,107.14911713575563
303,Manipur,Churachandpur,24.30309718875504,93.38671506024085,274,274143,138820,135323,195935,104013,91922,8282,122655,29894,837,12034,2886,254979,152,87,495,70594,52061,71.4718230996232,102.58418746258951
304,Manipur,Senapati,25.08465586034914,94.03366234413956,272,479148,247323,231825,264477,148012,116465,30369,233622,22798,256,43833,1649,426819,140,53,2409,124143,109479,55.19735029677678,106.68521514073115
305,Manipur,Tamenglong,24.98312942238265,93.49450740072204,273,140651,72371,68280,85006,47403,37603,1924,70675,11541,125,2995,589,134760,59,57,425,37237,33438,60.43753688206981,105.99150556531927
306,Manipur,Thoubal,24.545392553191498,93.97959893617023,276,422168,210845,211323,269304,152617,116687,33106,195319,49507,880,267146,107323,4322,106,24,114,109377,85942,63.79071838699285,99.7738059747401
307,Manipur,Ukhrul,25.05900314960629,94.44129566929138,279,183998,94718,89280,129829,70148,59681,3852,87929,14026,276,7553,1115,174112,108,70,635,46533,41396,70.56000608702269,106.09094982078852
308,Meghalaya,East Garo Hills,25.82728228228228,90.64684924924916,294,317917,161223,156694,192147,102513,89634,19246,126073,24550,288,17272,3359,289708,56,38,1004,72262,53811,60.439359958731366,102.89034679055995
309,Meghalaya,East Khasi Hills,25.303763888888884,91.75922519841272,298,825922,410749,415173,578030,287270,290760,40889,326786,135941,5032,144935,14185,543394,2495,303,3111,204303,122483,69.98602773627533,98.9344201092075
310,Meghalaya,Jaintia Hills,25.33959557069844,92.37608160136298,299,395124,196285,198839,187527,87371,100156,35766,154180,41677,510,12456,1646,271596,34,45,284,88839,65341,47.46029094663954,98.71554373136054
311,Meghalaya,South Garo Hills,25.240568578553614,90.64560349127176,295,142334,73170,69164,82062,45003,37059,5565,53069,10940,179,7036,1050,132984,27,10,332,32826,20243,57.654530892126964,105.79203053611705
312,Meghalaya,West Garo Hills,25.495285185185185,90.03709947089942,293,643291,324159,319132,358702,193438,165264,39725,255693,51301,1630,122936,106788,389956,209,144,3392,151914,103779,55.76045677617129,101.57521025782434
313,Meghalaya,West Khasi Hills,25.500889926739926,91.25364542124538,296,383461,193715,189746,230678,117307,113371,37184,163345,32873,149,6498,1533,366881,58,38,1313,89694,73651,60.15683472373984,102.09174369947192
314,Mizoram,Aizawl,23.90781335453101,92.85359459459472,283,400309,199270,201039,340595,169547,171048,11434,174636,79804,4019,13249,5264,379134,105,76,1570,104643,69993,85.08302336445097,99.12007122996036
315,Mizoram,Champhai,23.54166580976866,93.24221799485862,284,125745,63388,62357,100802,51440,49362,5823,60342,23948,186,1075,699,123446,9,45,151,34129,26213,80.16382361127678,101.6533829401671
316,Mizoram,Kolasib,24.2020004347826,92.73470391304348,282,83955,42918,41037,65895,34147,31748,5921,36672,14853,367,4000,4426,75210,16,2,108,22733,13939,78.48847596926926,104.58366839681264
317,Mizoram,Lawngtlai,22.36102843137253,92.66964156862753,287,117894,60599,57295,62861,36444,26417,3153,45566,9283,162,1668,522,63892,52,122,51549,28517,17049,53.31993146385736,105.76664630421502
318,Mizoram,Lunglei,23.007717036172675,92.63512555425892,286,161428,82891,78537,121122,64515,56607,10662,78292,26394,482,5231,1290,127124,74,93,27543,46230,32062,75.03159303218773,105.54388377452666
319,Mizoram,Mamit,23.73852942502819,92.4330803833147,281,86364,44828,41536,60191,32977,27214,2553,39339,12158,90,2989,1782,69104,13,25,12328,24016,15323,69.69454865453199,107.92565485362096
320,Mizoram,Saiha,22.35744801061008,93.02827931034489,288,56574,28594,27980,42233,21861,20372,957,19461,7400,168,933,514,54977,11,4,102,12211,7250,74.650899706579,102.19442458899212
321,Mizoram,Serchhip,23.263864705882344,92.914158496732,285,64937,32851,32086,54476,27598,26878,1284,32397,12315,131,991,335,63444,6,9,60,18261,14136,83.89054006190617,102.38421741569532
322,Nagaland,Dimapur,25.814176811594223,93.75074057971014,265,378811,197394,181417,278037,150142,127895,8990,151350,71413,3303,108900,31212,234239,566,2148,1270,99645,51705,73.39728782955089,108.80678216484674
323,Nagaland,Kohima,25.60311428571428,93.78600657596373,270,267988,138966,129022,197489,107038,90451,2198,114825,50724,1928,25496,4384,234955,998,80,1519,68140,46685,73.69322506977925,107.7072127234115
324,Nagaland,Mokokchung,26.478911764705888,94.522426006192,262,194622,101092,93530,159494,83479,76015,9166,100067,40154,537,9840,2057,181847,78,66,442,57084,42983,81.95065306080505,108.08510638297872
325,Nagaland,Mon,26.69207374301676,95.03072988826828,261,250260,131753,118507,119626,67432,52194,10836,147654,14398,178,8102,3444,236494,84,314,1256,79425,68229,47.80068728522337,111.17739880344621
326,Nagaland,Phek,25.63272986577182,94.56814563758392,266,163418,83743,79675,105893,57926,47967,3159,80277,36182,170,3563,950,158224,31,17,350,41556,38721,64.79885936677722,105.10574207718857
327,Nagaland,Tuensang,26.21104453280316,94.85809880715708,267,196596,101933,94663,117511,63653,53858,3913,98154,24998,155,2979,1052,191864,27,5,572,52931,45223,59.77283362835459,107.67987492473301
328,Nagaland,Wokha,26.202611551155112,94.1990815181518,264,166343,84505,81838,128208,67385,60823,6438,78412,25268,198,5605,2043,158236,34,8,318,42096,36316,77.07447863751405,103.25887729416652
329,Nagaland,Zunheboto,26.028178205128206,94.50026666666668,263,140757,71217,69540,102881,53504,49377,11955,79466,28846,261,2580,772,136995,39,6,286,41178,38288,73.09121393607423,102.41156169111304
330,Orissa,Baleshwar,21.48570932311624,87.08085828011933,377,2320529,1185787,1134742,1621232,902359,718873,358214,932707,296834,7370,2197709,94254,6434,237,201,111,684020,248687,69.8647592854905,104.49837936729229
331,Orissa,Bhadrak,20.95262735257214,86.81496204516931,378,1506337,760260,746077,1094140,596269,497871,151377,468599,164636,2637,1398543,104202,745,169,111,81,409559,59040,72.635804604149,101.90101021744404
332,Orissa,Cuttack,20.407640646029623,85.7776810228802,381,2624470,1352760,1271710,2011469,1103033,908436,248298,936365,349587,15046,2457729,141263,11985,1026,1180,6276,761876,174489,76.64286503560719,106.3733083800552
333,Orissa,Dhenkanal,20.79887159353349,85.53226836027711,383,1192811,612593,580218,829910,464093,365817,163636,435533,117172,1810,1185542,4805,727,124,39,366,340552,94981,69.57598479557952,105.57979931680852
334,Orissa,Gajapati,19.121080882352945,84.14015091911759,389,577817,282882,294935,262537,153663,108874,153199,293933,63112,635,353160,1556,219482,53,66,2180,155907,138026,45.436011747664054,95.91333683693017
335,Orissa,Ganjam,19.2632617564534,84.80297710437702,388,3529031,1779218,1749813,2210050,1262652,947398,565448,1501772,405298,9049,3486059,13315,23975,590,170,174,990027,511745,62.62483950976912,101.68046528400463
336,Orissa,Jharsuguda,21.827058566978184,83.93581682242987,371,579505,296690,282815,405879,228092,177787,56809,247707,81433,2498,553587,12783,10462,1441,70,80,172018,75689,70.03891252016807,104.90603397981013
337,Orissa,Kalahandi,19.784253092783523,83.1124043814433,395,1576869,787101,789768,802036,484177,317859,436733,751930,91171,1953,1555367,4975,11160,796,1225,175,447290,304640,50.86256372596583,99.66230589236332
338,Orissa,Kandhamal,20.092878624813142,84.02216352765326,390,733110,359945,373165,399786,233900,165886,162932,355349,28736,768,580300,2138,148895,82,47,290,193515,161834,54.53288046814257,96.45733120737475
339,Orissa,Kendrapara,20.606319815982264,86.83763247572003,379,1440361,717814,722547,1089265,579970,509295,143864,466890,173107,1628,1386792,50247,1423,169,52,62,386382,80508,75.62444414976524,99.34495610666157
340,Orissa,Khordha,20.054162322274863,85.52234834123229,386,2251673,1167137,1084536,1749936,957515,792421,116274,792193,349860,35701,2147632,84060,12527,1264,476,475,645880,146313,77.7171463174271,107.61625248032338
341,Orissa,Koraput,18.82627794779476,82.81278469846964,398,1379647,678809,700838,568090,340843,227247,290626,693406,85766,3988,1294151,8850,68550,518,491,219,384053,309353,41.17647485190052,96.85676290383797
342,Orissa,Malkangiri,18.25227930367506,81.98293636363628,399,613192,303624,309568,244706,147001,97705,106353,310666,24604,448,600219,1871,10039,213,195,43,170495,140171,39.906913332202635,98.07990489973125
343,Orissa,Mayurbhanj,21.897621545157754,86.4030408052231,376,2519738,1256213,1263525,1369397,794171,575226,568755,1223534,140189,2950,2113079,33706,15008,661,109,162,697782,525752,54.34680113567363,99.42130151757979
344,Orissa,Nayagarh,20.192895622119817,85.05614700460825,385,962789,502636,460153,688362,392333,296029,120129,343633,124984,1163,955754,5278,383,107,24,33,284591,59042,71.49666230087797,109.23236401805487
345,Orissa,Nuapada,20.471309512195116,82.59152536585364,394,610382,301962,308420,299383,180903,118480,149834,305438,43976,757,601092,4952,1778,724,905,76,168155,137283,49.048464731921975,97.90610206860775
346,Orissa,Puri,19.83509174603177,85.86698989898981,387,1698730,865380,833350,1291939,704857,587082,163942,621676,201605,3416,1644905,46094,4239,193,94,243,498461,123215,76.05322799974098,103.84352312953742
347,Orissa,Rayagada,19.292840020060204,83.45860120361095,396,967911,471960,495951,407735,241959,165776,248175,467122,61543,1553,874445,4607,84916,219,123,249,258032,209090,42.125257384201646,95.16262695306594
348,Orissa,Sambalpur,21.515752380952385,84.34958483245157,372,1041099,526877,514222,703691,393192,310499,160798,505840,126498,5231,964188,20120,50637,2506,86,310,313161,192679,67.59117048426711,102.46099933491762
349,Orissa,Sundargarh,22.06354819277107,84.50524819277099,374,2093437,1061147,1032290,1342322,750147,592175,253327,873227,223537,12787,1532352,71391,385011,5713,721,710,584687,288540,64.12048702683673,102.79543539121758
350,Puducherry,Karaikal,10.876161726078813,79.82369793621002,637,200222,97809,102413,154916,79903,75013,13077,68301,47880,1868,152638,28835,18391,46,54,63,53139,15162,77.3721169501853,95.50447697069708
351,Puducherry,Mahe,12.006420793787758,75.28275021570326,636,41816,19143,22673,36470,16610,19860,82,11802,7150,574,27940,12856,958,3,14,21,9093,2709,87.21541993495313,84.43082080007058
352,Puducherry,Yanam,16.707695652173904,82.26187304347832,634,55626,27301,28325,39274,19919,19355,3324,16760,12859,207,53537,1191,873,3,4,1,14047,2713,70.60367454068242,96.38481906443072
353,Punjab,Amritsar,31.548679820627772,74.79883856502238,49,2490656,1318408,1172248,1684770,932981,751789,121599,917856,461231,29961,690939,12502,54344,1716935,3152,876,735195,182661,67.6436248120977,112.46835140686953
354,Punjab,Bathinda,30.190524611973352,75.05685898004438,46,1388525,743197,645328,844868,488261,356607,128382,549986,255650,11284,380569,16299,2474,984286,1266,246,432988,116998,60.84643776669487,115.16577616343938
355,Punjab,Faridkot,30.591187250996025,74.79751553784862,45,617508,326671,290837,381285,215767,165518,54058,221555,113549,4348,141363,3125,1227,469789,1109,155,185049,36506,61.745758759400694,112.32099079553153
356,Punjab,Fatehgarh Sahib,30.64290947368421,76.36208394736842,40,600163,320795,279368,426033,238696,187337,21389,214783,113683,5138,152851,16808,1698,427521,178,48,182777,32006,70.98621541147988,114.82882792588987
357,Punjab,Firozpur,30.63407535211269,74.40245732394365,43,2029074,1071637,957437,1227511,707070,520441,227971,756695,349662,10042,906408,6844,19358,1090815,1143,454,596406,160289,60.49611793359927,111.9276777479876
358,Punjab,Gurdaspur,32.04283371212125,75.3204064393939,35,2298323,1212617,1085706,1634719,907660,727059,100684,757138,411216,14428,1074332,27667,176587,1002874,580,405,637652,119486,71.12659969899792,111.6892602601441
359,Punjab,Hoshiarpur,31.55157169811319,75.8469857442349,38,1586625,809057,777568,1199699,637927,561772,74362,499822,319930,13747,1000743,23089,14968,538208,2034,3476,412506,87316,75.61326715512487,104.04967797028684
360,Punjab,Jalandhar,31.250336907216507,75.54400350515463,37,2193590,1145211,1048379,1622537,882581,739956,66664,774472,446200,39082,1394329,30233,26016,718363,4011,11385,639484,134988,73.96719532820627,109.23635440999868
361,Punjab,Kapurthala,31.336592638036837,75.47641165644177,36,815168,426311,388857,576567,316254,260313,42387,284165,161206,9732,336124,10190,5445,453692,553,6662,235562,48603,70.72983728507498,109.63181838053578
362,Punjab,Ludhiana,30.76596397379912,75.83110851528383,41,3498739,1867816,1630923,2560225,1428348,1131877,98646,1284822,703624,58589,1502403,77713,16517,1863408,19620,2007,1053600,231222,73.17564985556224,114.52508794100027
363,Punjab,Mansa,29.919547714285724,75.4304922857143,47,769751,408732,361019,423560,244037,179523,90367,328512,140099,2673,156539,10375,917,598443,1577,123,230739,97773,55.025586196055606,113.2162019173506
364,Punjab,Moga,30.756540067340065,75.1600845117845,42,995746,525920,469826,627889,348549,279340,82397,359172,183396,7897,158414,9388,3277,818921,436,178,292379,66793,63.057145095235136,111.93931370337104
365,Punjab,Muktsar,30.31243303303303,74.5518747747748,44,901896,475622,426274,524848,300401,224447,111014,335326,166585,4571,254920,4333,1681,638625,744,240,272699,62627,58.19384940170485,111.57659158194026
366,Punjab,Patiala,30.214540380693364,76.27505893949697,48,1895686,1002522,893164,1266791,711052,555739,89123,660267,352929,24274,783306,40043,5683,1059944,1914,245,549661,110606,66.82493830729351,112.24388802056508
367,Punjab,Rupnagar,30.910937330754347,76.53743500967126,51,684627,357485,327142,502731,278534,224197,21520,233676,129123,6600,304481,14492,2094,361045,653,118,186910,46766,73.43137211941685,109.27517714020212
368,Punjab,Sangrur,30.185045204336895,75.89437014178496,53,1655169,878029,777140,1002077,570413,431664,91799,568758,305557,10736,389410,179116,2406,1077438,3222,268,485129,83629,60.54227695177955,112.9820881694418
369,Rajasthan,Ajmer,26.199300378787903,74.6990419191919,119,2583052,1324085,1258967,1526673,926268,600405,145523,1053722,393498,13499,2201663,314159,10605,6799,45614,417,686149,367573,59.10345591184382,105.17233573239014
370,Rajasthan,Alwar,27.55271738035265,76.65359630562563,104,3674179,1939026,1735153,2182476,1359829,822647,216772,1708542,485723,9750,3039279,547335,2696,64532,13221,4384,994171,714371,59.40037216477477,111.74956905817528
371,Rajasthan,Banswara,23.453642032967014,74.44246868131869,125,1797485,907754,889731,829343,513854,315489,199370,916574,120603,2324,1701234,48834,22250,427,22613,138,482236,434338,46.13907765572453,102.02566843236889
372,Rajasthan,Baran,24.98023243243244,76.86210651828291,128,1222755,633945,588810,693307,432607,260700,185037,552583,161310,1363,1133349,79984,1432,3066,2795,84,329754,222829,56.70040196114512,107.66546084475468
373,Rajasthan,Barmer,25.77070908045978,71.50297126436782,115,2603751,1369022,1234729,1188322,783461,404861,132696,1202482,126494,2766,2244882,321192,1157,450,34010,157,696240,506242,45.63884949060029,110.87631374981879
374,Rajasthan,Bharatpur,27.32411858037578,77.21752077244258,105,2548462,1355726,1192736,1480869,943910,536959,238894,1071154,288723,4179,2143046,371286,1576,23456,5758,899,647198,423956,58.108341423179944,113.66522013253561
375,Rajasthan,Bhilwara,25.45119767759564,74.63947595628417,122,2408523,1220736,1187787,1256126,777582,478544,163052,1148165,373644,6207,2224839,142427,1978,1468,35149,183,674589,473576,52.15337366510513,102.77398220387998
376,Rajasthan,Bikaner,28.12489068322981,73.26943322981371,101,2363937,1240801,1123136,1278801,782399,496402,103833,986208,220793,7607,2073356,235741,1901,20072,30850,285,640572,345636,54.09623860534354,110.4764694569491
377,Rajasthan,Bundi,25.48580716049379,75.79984074074079,121,1110906,577160,533746,585044,371705,213339,111388,526091,136969,1392,1017688,66609,682,11059,13455,144,314806,211285,52.66368171564471,108.13383144791717
378,Rajasthan,Chittaurgarh,24.631623761665463,74.80010997846382,126,1544338,783171,761167,821825,514851,306974,123469,802755,268172,4941,1413163,97855,1274,1515,25843,252,456632,346123,53.215358295917085,102.89082422122873
379,Rajasthan,Churu,28.29330375536484,74.65846427038629,102,2039547,1051446,988101,1149269,696729,452540,87983,902829,231696,2577,1777879,249736,958,402,7104,188,541404,361425,56.34922852966859,106.41078189375376
380,Rajasthan,Dausa,26.91234817629181,76.57342097264443,109,1634409,857787,776622,938051,596935,341116,76277,684495,195277,1719,1582335,45488,439,296,3737,94,398151,286344,57.39389589753849,110.45103023092315
381,Rajasthan,Dhaulpur,26.72397054945053,77.74476219780222,106,1206516,653647,552869,683098,435721,247377,74342,523212,96086,1330,1127520,72258,688,1356,2739,92,339110,184102,56.617400846735556,118.22818787090613
382,Rajasthan,Dungarpur,23.75104807692308,73.84765641025645,124,1388552,696532,692020,681591,415820,265771,184330,641515,141275,1477,1340065,28662,830,240,16141,226,346624,294891,49.086458411352254,100.65200427733303
383,Rajasthan,Ganganagar,29.256785412667963,73.56192303262948,99,1969168,1043340,925828,1193343,710908,482435,230438,912672,283142,6295,1437144,50688,2077,474853,1988,938,596320,316352,60.6013808877658,112.69263837343438
384,Rajasthan,Hanumangarh,29.1813351791531,74.74632573289902,100,1774692,931184,843508,1034136,624281,409855,166833,835260,243163,3360,1433067,118673,1542,216997,1935,241,512802,322458,58.271294399253506,110.3942108432878
385,Rajasthan,Jaipur,27.033459290187885,75.77117286012533,110,6626178,3468507,3157671,4300965,2554793,1746172,131523,2464893,990085,76565,5819980,687452,12708,18782,81079,1020,1714947,749946,64.90868491610095,109.84383743588234
386,Rajasthan,Jaisalmer,26.86900838548185,71.18371877346682,114,669919,361708,308211,308653,210415,98238,43872,288903,43141,754,497045,168129,874,1723,1521,98,182565,106338,46.07318198170226,117.3572649905422
387,Rajasthan,Jalor,25.07578093797277,72.18647261724662,116,1828730,936634,892096,829582,543923,285659,158013,896644,161845,1585,1732852,78990,730,231,14640,144,494906,401738,45.36383173021715,104.99251201664394
388,Rajasthan,Jhalawar,24.24725541474657,76.11242891705065,129,1411129,725143,685986,739792,466815,272977,209772,685950,220428,1750,1299751,96164,842,819,12488,46,402825,283125,52.42554011716859,105.70813398524169
389,Rajasthan,Jhunjhunun,28.13517401247401,75.52840893970894,103,2137045,1095896,1041149,1370360,815834,554526,68878,894649,297559,4828,1905682,228178,1004,275,548,56,541392,353257,64.12405915645202,105.25832517728011
390,Rajasthan,Jodhpur,26.678460838536967,73.00450847457628,113,3687165,1923928,1763237,2031532,1265753,765779,242017,1489741,408808,19335,3224399,411558,6035,4123,36697,514,965103,524638,55.09739867893083,109.11340903123063
391,Rajasthan,Karauli,26.51901555555556,76.96081818181815,107,1458248,783639,674609,805849,531904,273945,115367,628726,132079,1059,1370977,81553,602,297,3424,70,371058,257668,55.26145072717398,116.16195455441596
392,Rajasthan,Kota,25.175718080000014,76.18618928000001,127,1951014,1021161,929853,1298345,765396,532949,134992,748811,339899,12843,1661307,243993,5665,11058,25742,280,534650,214161,66.5471903328218,109.81961664908324
393,Rajasthan,Nagaur,27.07862016048146,74.14215667001012,112,3307743,1696325,1611418,1758624,1102750,655874,263401,1425882,347344,4449,2833443,454487,1912,366,12940,163,857031,568851,53.16688751211929,105.26908598513856
394,Rajasthan,Pali,25.80490393541874,73.55285640766907,118,2037573,1025422,1012151,1085693,667381,418312,237280,842327,326793,4043,1870543,143476,1345,1540,18974,141,523077,319250,53.28363695435697,101.31116799766042
395,Rajasthan,Rajsamand,25.24894767441859,73.96570215946844,123,1156597,581339,575258,619139,383334,235805,106587,550831,193276,1989,1105676,33677,759,260,14966,100,319534,231297,53.53109164211908,101.05709090529815
396,Rajasthan,Sawai Madhopur,26.251081180223288,76.4219283891548,108,1335551,704031,631520,741748,486184,255564,88804,578068,140947,1887,1165505,155681,945,812,9991,177,343802,234266,55.53872521528568,111.48197998479858
397,Rajasthan,Sikar,27.64644058641976,75.29317422839503,111,2677333,1374990,1302343,1652117,995275,656842,87889,1006504,339457,5647,2342076,327583,1122,356,4050,177,657854,348650,61.7075649536311,105.57817717759454
398,Rajasthan,Sirohi,24.7976905263158,72.75309131578943,117,1036346,534231,502115,476806,309900,166906,97823,419829,134089,2146,996562,30479,1284,572,6829,114,272196,147633,46.008379440843115,106.39614430957052
399,Rajasthan,Tonk,26.153935071707927,75.79192216427637,120,1421326,728136,693190,749659,478329,271330,113426,649161,158264,1908,1243527,153146,754,378,22458,122,371848,277313,52.743635168849366,105.04133065970369
400,Rajasthan,Udaipur,24.44076752136749,73.84029839743584,130,3068420,1566801,1501619,1582629,973444,609185,302968,1365783,357846,14211,2869976,104307,7406,4278,78647,209,835839,529944,51.57797824287418,104.3407815164832
401,Sikkim,East,27.29600352941175,88.74908392156858,93,1709346,907500,801846,1352998,748382,604616,3094,579692,352758,80037,1410852,178807,15792,53027,46927,2643,486951,92741,79.15296259505097,113.17634558256822
402,Tamil Nadu,Ariyalur,11.190514836795256,79.22249643916912,616,754894,374703,380191,480604,269582,211022,166837,359851,177502,1749,708397,7942,37403,104,65,88,212547,147304,63.66509735141622,98.5565150148215
403,Tamil Nadu,Chennai,13.058098905608748,80.28139151846806,603,4646732,2335844,2310888,3776276,1968079,1808197,13674,1817297,1096334,217368,3751322,439270,358662,2851,51708,2804,1369302,447995,81.267350903818,101.0799311779714
404,Tamil Nadu,Coimbatore,10.871376995940452,77.07619012178621,632,3458045,1729297,1728748,2635907,1394790,1241117,230026,1567950,896325,63273,3044145,211035,190314,1112,3284,435,1083125,484825,76.22535276435094,100.03175708663147
405,Tamil Nadu,Cuddalore,11.57587300613498,79.63002365371497,617,2605914,1311697,1294217,1815281,1000322,814959,539412,1169880,598412,15396,2391675,123749,83334,401,1280,236,749633,420247,69.66005017817164,101.3506235816714
406,Tamil Nadu,Dharmapuri,12.300141200000006,78.11509813333339,630,1506843,774303,732540,917709,527599,390110,267345,751170,337972,3651,1452956,38304,14089,164,37,39,446057,305113,60.902761601573616,105.701122123024
407,Tamil Nadu,Dindigul,10.377801390820574,77.78011279554937,612,2159775,1080938,1078837,1481834,816180,665654,467959,1105155,500057,9155,1879494,105012,169945,313,71,256,665469,439686,68.61057286059891,100.1947467504359
408,Tamil Nadu,Erode,11.267012155963302,77.42034334862392,610,2251744,1129868,1121876,1492662,828300,664362,370212,1195773,595211,18604,2115455,76098,55899,435,639,148,732083,463690,66.28915187516876,100.71237819509464
409,Tamil Nadu,Kancheepuram,12.496424756511884,80.08820360135913,604,3998252,2012958,1985294,3013382,1611461,1401921,272514,1673814,961161,100322,3537399,173785,256762,1620,4962,990,1181308,492506,75.36748559120335,101.3934460085005
410,Tamil Nadu,Kanniyakumari,8.183466300191206,77.32053064053538,629,1870374,926345,944029,1548738,780541,768197,72867,679620,465692,15673,909872,78590,876299,160,156,438,524629,154991,82.8036531731087,98.1267524620536
411,Tamil Nadu,Karur,10.79532776617955,78.08749686847604,613,1064493,528184,536309,727044,401726,325318,200837,543298,264949,4915,993666,53292,16483,115,7,29,329034,214264,68.29955669036809,98.48501516849429
412,Tamil Nadu,Madurai,9.904313833333331,78.01366033333332,623,3038252,1526475,1511777,2273430,1223810,1049620,372828,1354632,754141,34097,2760502,168881,97711,520,1532,199,902704,451928,74.82690705050142,100.97223333864717
413,Tamil Nadu,Nagapattinam,10.789468161718286,79.79437299431483,618,1616450,798127,818323,1213008,640916,572092,345057,671994,381940,5585,1435072,128617,47579,184,963,450,461174,210820,75.0414797859507,97.53202586264837
414,Tamil Nadu,Namakkal,11.33766638477801,78.14624841437633,609,1726601,869280,857321,1176131,653312,522819,253726,898245,441044,8960,1673652,32483,16909,183,84,108,531463,366782,68.11828557958671,101.39492675438954
415,Tamil Nadu,Perambalur,11.260137758112096,78.86034011799416,615,565223,282157,283066,375823,208011,167812,118278,299726,135751,1507,521658,32702,10301,83,38,39,162639,137087,66.49110174214425,99.67887347827008
416,Tamil Nadu,Pudukkottai,10.130514816433578,79.05444484265728,621,1618345,803188,815157,1110545,608776,501769,305149,761693,354493,4494,1428784,114194,72850,119,32,81,471099,290594,68.62226533897284,98.53169389455037
417,Tamil Nadu,Ramanathapuram,9.31286995153476,78.99185362412462,626,1353445,682658,670787,978946,536487,442459,153874,602977,291400,5172,1047411,208038,91139,154,29,86,392751,210226,72.32994321897085,101.76971229317205
418,Tamil Nadu,Salem,11.629324202127655,78.2478257978723,608,3482056,1781571,1700485,2285562,1285107,1000455,454210,1694160,835377,20660,3326357,95487,53841,412,992,174,1083797,610363,65.63828956225862,104.76840430818267
419,Tamil Nadu,Sivaganga,9.960306580645158,78.56535729032255,622,1339101,668672,670429,959744,526304,433440,199563,620171,314270,5773,1186078,74310,75481,150,109,80,391305,228866,71.67077016595462,99.73792899770147
420,Tamil Nadu,Thanjavur,10.387692255892237,79.3194869107745,620,2405890,1182416,1223474,1790998,944264,846734,415361,974079,555582,13495,2075870,190814,133971,231,1256,795,680483,293596,74.44222304427883,96.64414609546259
421,Tamil Nadu,Theni,9.924066666666668,77.43458833333332,624,1245899,625683,620216,870080,479403,390677,315161,591642,312310,4667,1148990,56751,37574,152,28,79,368900,222742,69.83551636208072,100.8814671017839
422,Tamil Nadu,Thiruvallur,13.275858101752885,80.19724702864492,602,3728104,1876062,1852042,2791721,1495711,1296010,270586,1538054,909400,75634,3325823,143093,233633,1422,3693,951,1103563,434491,74.88313094269903,101.29694682949955
423,Tamil Nadu,Thiruvarur,10.368927409395978,79.60322893959727,619,1264277,626693,637584,946471,503085,443386,295188,540168,303114,4416,1132785,96092,33192,258,279,151,369853,170315,74.86262899665184,98.29183291927025
424,Tamil Nadu,Tiruvannamalai,12.419318947368414,79.23265631578953,606,2464875,1235889,1228986,1626813,909803,717010,525063,1238177,549077,6445,2294369,91636,66987,232,7898,157,738995,499182,65.9998174349612,100.56168255781594
425,Tamil Nadu,Vellore,12.784882632293078,79.02643283582084,605,3936331,1961688,1974643,2773928,1504355,1269573,391955,1689330,865913,20623,3397857,414760,111390,676,3514,438,1123874,565456,70.46988680575896,99.34393204239956
426,Tamil Nadu,Virudhunagar,9.468872195892564,77.87641469194315,625,1942288,967709,974579,1398788,760375,638413,208702,950158,505950,10219,1822626,47838,67405,245,98,87,579111,371047,72.01753807880192,99.2950802346449
427,Tripura,Dhalai,23.781360477941163,91.94654283088232,291,378230,194544,183686,276217,151643,124574,42201,155831,46875,273,307120,8256,22940,175,85,39120,105657,50174,73.0288448827433,105.91117450431715
428,Tripura,North Tripura,24.121739755351683,92.17842538226292,292,693947,352860,341087,520402,275646,244756,43977,248667,81601,997,507967,105737,44062,151,307,34717,186034,62633,74.99160598720074,103.4516120520571
429,Tripura,South Tripura,23.211874098057383,91.6065807585568,290,876001,447544,428457,646810,351082,295728,111332,366845,133744,948,736015,49258,39258,245,106,49420,253229,113616,73.83667370242728,104.45482277101318
430,Tripura,West Tripura,23.780166241299337,91.41310788863107,289,1725739,879428,846311,1361354,722998,638356,156108,698178,314567,6394,1512801,152791,53622,499,362,2128,500406,197772,78.88527755355823,103.9131005032429
431,Uttar Pradesh,Agra,26.99512974910393,78.05278291517321,146,4418797,2364953,2053844,2680510,1614594,1065916,234455,1389844,536402,27183,3922718,411313,10076,12057,21508,4049,1119701,270143,60.66153299189803,115.14764509865402
432,Uttar Pradesh,Aligarh,27.93748576850093,78.00146831119557,143,3673889,1951996,1721893,2092567,1283380,809187,267197,1174361,268120,13634,2904140,729283,7635,5875,2805,2582,929337,245024,56.957817723943215,113.36337391463928
433,Uttar Pradesh,Allahabad,25.392038662316445,82.05172446982063,175,5954391,3131807,2822584,3665727,2199340,1466387,541146,2111907,391542,24122,5102041,796756,13782,4377,2247,4391,1426110,685797,61.56342437035123,110.95531612168142
434,Uttar Pradesh,Ambedkar Nagar,26.39119025974028,82.68282142857147,178,2397888,1212410,1185478,1486939,846676,640263,301120,787398,99581,2509,1985654,401678,2536,869,235,1817,547406,239992,62.010360784156724,102.27182621693527
435,Uttar Pradesh,Auraiya,26.66892394014961,79.42637057356607,162,1379545,740040,639505,930836,546198,384638,151727,442023,65479,2404,1273546,101963,1004,371,228,332,364543,77480,67.47413096346983,115.72075276972033
436,Uttar Pradesh,Azamgarh,26.008290954773837,83.01220251256285,191,4613913,2285004,2328909,2771917,1559414,1212503,452055,1372032,183381,6652,3878626,718692,3810,719,183,5652,941890,430142,60.077357332051996,98.11478250116255
437,Uttar Pradesh,Baghpat,29.045793499999988,77.30266300000001,139,1303048,700070,602978,797970,489858,308112,74500,416695,119121,2989,917474,364583,1840,483,16139,161,342604,74091,61.23872643218055,116.10208000955258
438,Uttar Pradesh,Bahraich,27.691776300578027,81.46779783237004,180,3487731,1843884,1643847,1398368,878285,520083,482897,1152160,85814,2681,2291892,1169330,6400,8212,1177,2793,895576,256584,40.09391779354543,112.16883323082986
439,Uttar Pradesh,Ballia,25.86075638297873,84.03651978723408,193,3239774,1672902,1566872,1963590,1160960,802630,384432,1019483,119972,4672,3004240,213440,4463,892,233,1595,723060,296423,60.608857284489595,106.7669854333985
440,Uttar Pradesh,Balrampur,27.449076537911324,82.47158326180256,182,2148665,1114721,1033944,868357,544943,323414,328768,760253,57400,1551,1333242,805975,3228,900,198,1866,534332,225921,40.413791819571685,107.8125120896296
441,Uttar Pradesh,Banda,25.351885902503284,80.52487391304344,170,1799410,965876,833534,1002937,630626,372311,273458,701689,73522,1655,1637549,157612,1367,231,916,168,485314,216375,55.73699156945888,115.87721676620271
442,Uttar Pradesh,Bara Banki,26.922777025232424,81.35762350597606,176,3260699,1707073,1553626,1692458,1010518,681940,421973,1192850,108116,3159,2505444,737106,4857,2090,3016,1553,871241,321609,51.90476029832867,109.87670134253675
443,Uttar Pradesh,Bareilly,28.51101940789474,79.43187072368416,150,4448359,2357665,2090694,2191759,1342697,849062,326376,1401971,272830,15164,2830768,1536534,14822,28187,931,4371,1153006,248965,49.271180675840235,112.76949185294451
444,Uttar Pradesh,Basti,26.833880454545447,82.69790590909092,185,2464464,1255272,1209192,1393783,819719,574064,282260,783688,108101,3423,2082976,364510,3493,900,107,9753,558642,225046,56.55521849781535,103.81080920151638
445,Uttar Pradesh,Bijnor,29.313974259681096,78.45098815489754,134,3682713,1921215,1761498,2135393,1241471,893922,311489,1088036,268353,7303,2032081,1585210,6184,50624,2134,1736,921497,166539,57.984236078130444,109.0671121965509
446,Uttar Pradesh,Bulandshahr,28.34875862068968,78.01082758620684,142,3499171,1845260,1653911,2031656,1253314,778342,241137,1173260,223922,7865,2707195,777407,4088,2765,1572,669,897815,275445,58.0610664640282,111.56948590341318
447,Uttar Pradesh,Chandauli,25.1180859611231,83.25307062634984,196,1952756,1017905,934851,1174606,699454,475152,248674,652543,99602,3492,1727869,215081,2153,1389,100,340,462971,189572,60.15119144429719,108.88419651901746
448,Uttar Pradesh,Chitrakoot,25.159924623803,81.07666087551297,171,991730,527721,464009,531072,330339,200733,150695,394197,41046,827,955372,34559,693,63,285,101,254977,139220,53.55005898782935,113.73076815320393
449,Uttar Pradesh,Deoria,26.42218856548857,83.8244070686071,190,3100946,1537436,1563510,1875239,1079288,795951,291016,876246,150001,4469,2730957,358539,3626,818,209,1182,639073,237173,60.47312658782191,98.33234197414791
450,Uttar Pradesh,Etah,27.591155309734443,78.70021858407083,201,1774480,947339,827141,1055202,647042,408160,131779,545984,69591,2635,1611126,146346,2464,708,5671,2887,440244,105740,59.4654208556873,114.53174247196065
451,Uttar Pradesh,Etawah,26.78817670157068,79.07621806282728,161,1581810,845856,735954,1062003,623583,438420,158026,506072,113098,2964,1457892,113961,1362,1045,3917,1733,413713,92359,67.13846795759288,114.9332702859146
452,Uttar Pradesh,Faizabad,26.60589185185181,82.00783530864202,177,2470996,1259628,1211368,1450901,838339,612562,272734,831209,127754,4746,2094271,365806,3225,1912,358,737,597888,233321,58.71725409510983,103.9839256113749
453,Uttar Pradesh,Farrukhabad,27.45063297872342,79.4406284574468,159,1885204,1006240,878964,1092677,654827,437850,135679,592267,88081,2624,1596278,276846,3137,3160,487,3161,494545,97722,57.96067693469779,114.4802289968645
454,Uttar Pradesh,Fatehpur,25.8374362030905,80.85416203090509,172,2632733,1384722,1248011,1512166,911003,601163,425366,1063929,75263,3385,2274674,350700,2201,402,199,172,713736,350193,57.437119525603244,110.9543104988658
455,Uttar Pradesh,Firozabad,27.20963993055552,78.42660624999998,147,2498156,1332046,1166110,1521806,912314,609492,150221,761521,196080,5834,2140745,314812,3370,1804,19077,3395,621840,139681,60.91717250644075,114.22987539768977
456,Uttar Pradesh,Gautam Buddha Nagar,28.393311038961038,77.52462467532465,141,1648115,890214,757901,1122947,666065,456882,48845,569109,257586,53181,1394025,215500,7366,9261,4518,895,443384,125725,68.13523328165813,117.45782100828472
457,Uttar Pradesh,Ghaziabad,28.74997308584685,77.67441879350343,140,4681645,2488834,2192811,3123264,1811397,1311867,123680,1520538,695130,78116,3414427,1186776,19026,23001,16412,3487,1231615,288923,66.71296093573946,113.49970426087795
458,Uttar Pradesh,Ghazipur,25.624724775583484,83.5360854578097,195,3620268,1855075,1765193,2197549,1293553,903996,435934,1204602,105767,5309,3233790,368153,4181,810,213,3145,808700,395902,60.70127957377741,105.09190779705109
459,Uttar Pradesh,Gonda,27.157215552099505,82.0226888024882,183,3433919,1787146,1646773,1679994,1034181,645813,431532,1170552,104084,4313,2739076,678615,4735,1893,338,649,855848,314704,48.92351858037421,108.52412566880803
460,Uttar Pradesh,Gorakhpur,26.63315886792452,83.3549560377358,188,4440895,2277777,2163118,2700328,1593890,1106438,454931,1351629,296619,14597,4009037,403847,9662,2123,460,2848,1016876,334753,60.805941144746726,105.30063547157391
